City_ID,City,Lat,Lng,Max Temp,Humidity,Cloudiness,Wind Speed,Country,Date
0,hakui,36.8833,136.7833,305.75,66,70,2.37,JP,1722477166
1,iqaluit,63.7506,-68.5145,280.0,65,20,1.54,CA,1722477167
2,pisco,-13.7,-76.2167,289.18,88,0,4.12,PE,1722477012
3,hermanus,-34.4187,19.2345,278.04,78,0,2.79,ZA,1722477169
4,lata,40.1629,-8.3327,292.64,88,100,2.14,PT,1722477170
5,mahalapye,-23.1041,26.8142,285.93,87,3,7.96,BW,1722477171
6,hotan,37.0997,79.9269,303.75,24,100,3.77,CN,1722477172
7,atafu village,-8.5421,-172.5159,300.78,74,100,9.85,TK,1722477173
8,anadyr,64.75,177.4833,285.43,100,75,6.0,RU,1722476998
9,edinburgh of the seven seas,-37.0676,-12.3116,284.99,61,40,10.55,SH,1722477176
10,tiksi,71.6872,128.8694,277.02,71,76,3.58,RU,1722477177
11,piti village,13.4626,144.6933,304.1,81,94,5.03,GU,1722477178
12,ushuaia,-54.8,-68.3,276.96,75,100,1.03,AR,1722477003
13,longyearbyen,78.2186,15.6401,284.06,87,0,0.0,SJ,1722477181
14,isafjordur,66.0755,-23.124,280.54,93,100,3.46,IS,1722477182
15,bethel,41.3712,-73.414,297.61,87,20,1.54,US,1722477183
16,ust-nera,64.5667,143.2,277.71,96,100,3.17,RU,1722477185
17,north lakhimpur,27.2333,94.1167,298.2,94,100,5.14,IN,1722477186
18,kirensk,57.7853,108.1119,289.35,52,100,3.72,RU,1722477187
19,colonia,50.9333,6.95,292.69,89,0,3.6,DE,1722477189
20,adamstown,-25.066,-130.1015,295.39,87,0,9.13,PN,1722477190
21,papao,-17.75,-149.55,297.97,59,51,7.36,PF,1722477191
22,mount gambier,-37.8333,140.7667,286.62,55,88,3.1,AU,1722477193
23,komsomolets,53.7453,62.0708,291.72,75,100,1.97,KZ,1722477194
24,tamuin,21.9833,-98.75,298.01,92,73,2.49,MX,1722477195
25,blackmans bay,-43.0167,147.3167,283.56,77,96,1.34,AU,1722477196
26,port alfred,-33.5906,26.891,284.62,73,3,5.34,ZA,1722477197
27,wailua homesteads,22.0669,-159.378,299.59,75,40,6.69,US,1722477198
28,port-aux-francais,-49.35,70.2167,277.64,96,100,14.4,TF,1722477201
29,waverly,42.7392,-84.6208,298.9,81,0,2.82,US,1722477202
30,hawaiian paradise park,19.5933,-154.9731,300.88,68,0,4.63,US,1722477203
31,badger,64.8,-147.5333,290.36,54,75,4.12,US,1722477204
32,kiama,-34.6833,150.8667,288.36,56,96,6.89,AU,1722477205
33,bonthe,7.5264,-12.505,297.81,89,97,4.97,SL,1722477206
34,musoma,-1.5,33.8,293.0,80,19,3.65,TZ,1722477207
35,beloyarskiy,63.7119,66.6722,290.14,72,95,1.85,RU,1722477208
36,port hedland,-20.3167,118.5667,298.18,22,100,5.66,AU,1722477209
37,albany,42.6001,-73.9662,296.86,77,3,3.3,US,1722476994
38,saipan,15.1355,145.701,305.54,70,20,5.14,MP,1722477001
39,changyon,38.2508,125.0961,302.13,85,100,6.44,KP,1722477212
40,west island,-12.1568,96.8225,300.14,65,40,7.2,CC,1722477214
41,santarem,-2.4431,-54.7083,301.22,78,0,2.06,BR,1722477215
42,yellowknife,62.456,-114.3525,287.44,72,75,5.14,CA,1722476963
43,siuna,13.7332,-84.7773,296.62,98,100,1.36,NI,1722477217
44,invercargill,-46.4,168.35,279.83,76,5,0.45,NZ,1722477042
45,aomori,40.8244,140.74,300.66,71,75,2.68,JP,1722477219
46,krasnyy chikoy,50.3643,108.7512,296.49,62,95,0.61,RU,1722477220
47,bilibino,68.0546,166.4372,281.52,40,23,1.09,RU,1722477221
48,pala,9.3642,14.9046,295.22,95,100,1.87,TD,1722477222
49,san patricio,28.017,-97.5169,302.53,71,0,6.28,US,1722477223
50,saurimo,-9.6608,20.3916,289.52,28,0,1.46,AO,1722477224
51,puerto natales,-51.7236,-72.4875,274.62,99,100,1.89,CL,1722477208
52,pokrovsk,48.282,37.1758,287.23,77,0,2.7,UA,1722477227
53,vilyuchinsk,52.9306,158.4028,289.3,97,100,1.76,RU,1722477228
54,toamasina,-18.1667,49.3833,291.56,87,15,2.38,MG,1722477229
55,thompson,55.7435,-97.8558,299.24,41,20,2.06,CA,1722477230
56,utrik,11.2278,169.8474,301.48,79,14,6.16,MH,1722477231
57,portland,45.5234,-122.6762,304.01,49,0,4.12,US,1722477232
58,waitangi,-43.9535,-176.5597,283.05,90,81,2.24,NZ,1722477233
59,codrington,-38.2667,141.9667,285.88,59,43,2.78,AU,1722477234
60,horta,38.5333,-28.6333,294.27,86,79,1.34,PT,1722477235
61,hammerfest,70.6634,23.6821,284.4,93,7,3.09,NO,1722477236
62,huilong,31.8111,121.655,306.89,65,0,3.46,CN,1722477237
63,la ronge,55.1001,-105.2842,301.29,30,40,3.09,CA,1722477238
64,port mathurin,-19.6833,63.4167,295.87,79,98,6.48,MU,1722477240
65,guerrero negro,27.9769,-114.0611,293.48,77,0,7.77,MX,1722477004
66,east london,-33.0153,27.9116,285.13,51,0,3.75,ZA,1722477242
67,olonkinbyen,70.9221,-8.7187,278.12,97,100,5.11,SJ,1722477243
68,walvis bay,-22.9575,14.5053,284.31,89,0,0.55,NA,1722477244
69,hamilton,39.1834,-84.5333,297.2,88,0,2.06,US,1722477087
70,arraial do cabo,-22.9661,-42.0278,292.13,100,100,1.54,BR,1722477246
71,whitehorse,60.7161,-135.0538,286.58,75,75,4.12,CA,1722477250
72,urengoy,65.9667,78.3667,293.41,72,53,2.25,RU,1722477252
73,labytnangi,66.6572,66.4183,291.3,86,30,5.69,RU,1722477253
74,hasaki,35.7333,140.8333,304.42,81,100,6.43,JP,1722477254
75,grytviken,-54.2811,-36.5092,264.78,76,26,5.61,GS,1722477255
76,grand falls-windsor,48.9332,-55.6649,293.99,90,0,3.94,CA,1722477093
77,serdar,38.9764,56.2757,300.01,58,12,6.16,TM,1722477257
78,stanley,54.868,-1.6985,289.66,87,100,2.07,GB,1722477258
79,kani keli,-12.9536,45.1033,297.74,69,49,5.93,YT,1722477259
80,lorengau,-2.0226,147.2712,302.85,72,5,5.3,PG,1722477260
81,vorgashor,67.5833,63.95,290.47,85,100,2.23,RU,1722477262
82,san nicolas de bari,22.7844,-81.9133,299.25,86,95,3.23,CU,1722477263
83,cedeira,43.6797,-8.0209,292.02,51,98,3.3,ES,1722477264
84,niquero,20.0431,-77.5828,301.05,78,100,2.0,CU,1722477265
85,luanda,-8.8368,13.2343,292.15,94,75,1.54,AO,1722477060
86,iskateley,67.6803,53.1512,290.44,85,100,3.49,RU,1722477267
87,fale old settlement,-9.3852,-171.2468,300.3,70,100,8.86,TK,1722477268
88,tianpeng,30.9866,103.9393,300.41,72,99,0.86,CN,1722477269
89,georgetown,5.4112,100.3354,303.11,78,20,2.57,MY,1722477270
90,thanatpin,17.2119,96.3033,299.25,89,100,1.84,MM,1722477271
91,minas de marcona,-15.2119,-75.1103,286.0,79,9,2.22,PE,1722477272
92,taro,-8.3862,115.28,297.15,59,8,0.58,ID,1722477274
93,serchhip,23.3,92.8333,296.7,99,100,1.04,IN,1722477275
94,sanctuary point,-35.1114,150.629,287.45,63,99,6.52,AU,1722477276
95,birao,10.2849,22.7882,294.41,97,42,1.67,CF,1722477277
96,puerto ayora,-0.7393,-90.3518,293.45,91,31,3.86,EC,1722477278
97,montepuez,-13.1256,38.9997,289.21,91,4,2.72,MZ,1722477279
98,port lincoln,-34.7333,135.8667,287.07,42,3,6.08,AU,1722477280
99,kosh-agach,50.0,88.6667,290.2,54,0,0.78,RU,1722477281
100,daru,-9.0763,143.2092,298.14,91,78,8.84,PG,1722477134
101,sofifi,0.7349,127.576,302.6,68,38,2.46,ID,1722477283
102,kununurra,-15.7667,128.7333,301.14,20,100,6.69,AU,1722477284
103,durham,36.0335,-78.8664,301.09,84,0,2.09,US,1722477285
104,ciudad constitucion,25.0369,-111.6644,301.56,41,0,5.81,MX,1722477287
105,okhotsk,59.3833,143.3,284.73,90,100,1.85,RU,1722477288
106,tobelo,1.7284,128.0095,302.24,70,57,2.82,ID,1722477289
107,lihue,21.9789,-159.3672,299.92,75,40,6.69,US,1722477290
108,jilib,0.4883,42.7854,295.97,90,86,2.72,SO,1722477291
109,alotau,-10.3069,150.4462,297.27,96,99,2.48,PG,1722477292
110,castillos,-34.1667,-53.8333,287.11,86,100,3.0,UY,1722477293
111,margaret river,-33.95,115.0667,284.47,61,85,7.97,AU,1722477275
112,nemuro,43.3236,145.575,289.36,95,100,3.98,JP,1722477295
113,bredasdorp,-34.5322,20.0403,279.44,83,0,2.25,ZA,1722477296
114,kingscliff,-28.2667,153.5667,292.56,42,0,4.63,AU,1722477299
115,ilulissat,69.2167,-51.1,279.16,75,40,1.03,GL,1722477300
116,ishigaki,24.3448,124.1572,304.22,84,40,4.12,JP,1722477302
117,whitby,54.4877,-0.615,291.01,70,100,2.24,GB,1722477303
118,gisborne,-38.6533,178.0042,284.02,78,100,9.51,NZ,1722477304
119,chibougamau,49.9168,-74.3659,293.94,88,75,1.03,CA,1722477305
120,saquarema,-22.92,-42.5103,292.23,74,62,5.83,BR,1722477306
121,pizarro,4.9533,-77.366,299.19,86,48,2.65,CO,1722477016
122,villa ocampo,-28.4875,-59.3551,294.56,64,20,5.6,AR,1722477308
123,punta arenas,-53.15,-70.9167,277.21,93,75,7.72,CL,1722477118
124,kailua-kona,19.6406,-155.9956,300.53,76,48,1.34,US,1722477310
125,enewetak,11.3474,162.3373,302.08,75,75,5.97,MH,1722477026
126,mogocha,53.7333,119.7667,293.73,37,2,1.87,RU,1722477314
127,mount isa,-20.7333,139.5,296.02,33,0,4.12,AU,1722477315
128,lodwar,3.1191,35.5973,298.6,64,98,4.1,KE,1722477316
129,belyy yar,53.6039,91.3903,292.09,82,0,2.0,RU,1722477317
130,rabaul,-4.1967,152.1721,302.88,68,26,6.13,PG,1722477318
131,aasiaat,68.7098,-52.8699,274.2,93,47,0.83,GL,1722477033
132,klyuchi,52.2667,79.1667,298.74,50,8,2.17,RU,1722477320
133,gadzhiyevo,69.2551,33.3362,282.96,92,99,7.13,RU,1722477321
134,pacific grove,36.6177,-121.9166,294.71,82,40,3.09,US,1722477322
135,palmas,-10.2128,-48.3603,298.08,53,0,2.06,BR,1722477324
136,ta`u,-14.2336,-169.5144,298.65,67,100,9.54,AS,1722477325
137,dzuunharaa,48.8523,106.4579,293.24,77,100,0.53,MN,1722477326
138,neryungri,56.6709,124.6491,286.71,46,18,5.01,RU,1722477327
139,itoman,26.1247,127.6694,305.36,76,20,4.12,JP,1722477328
140,ribeira grande,38.5167,-28.7,294.69,86,73,1.34,PT,1722477221
141,cervantes,-39.05,-67.3833,285.08,43,100,1.47,AR,1722477330
142,umm qasr,30.0405,47.9168,305.08,15,0,4.87,IQ,1722477331
143,abra pampa,-22.7205,-65.697,280.53,8,0,2.32,AR,1722477332
144,soio,-6.1349,12.3689,292.9,89,22,3.02,AO,1722477333
145,cao bang,22.6667,106.25,298.0,98,100,0.99,VN,1722477335
146,tofol,5.3248,163.0078,301.02,74,100,2.43,FM,1722477336
147,udachny,66.4167,112.4,284.89,47,98,3.01,RU,1722477337
148,nguigmi,14.2495,13.1092,301.78,64,100,7.49,NE,1722477338
149,northam,51.0333,-4.2167,292.25,91,100,2.43,GB,1722477340
150,akobo,7.4344,3.9497,294.11,99,100,1.92,NG,1722477342
151,whakatane,-37.9585,176.9854,284.25,76,100,4.98,NZ,1722477254
152,khandyga,62.6667,135.6,283.16,71,94,2.25,RU,1722477344
153,papatowai,-46.5619,169.4708,281.54,64,21,1.19,NZ,1722477345
154,ola,59.5833,151.2833,285.78,83,100,2.49,RU,1722477347
155,nova sintra,14.8667,-24.7167,298.01,84,100,6.7,CV,1722477348
156,lerwick,60.1545,-1.1494,285.15,82,90,1.5,GB,1722477349
157,nagqu,31.5,92.0,281.96,47,7,1.68,CN,1722477350
158,mao,39.8885,4.2658,298.46,94,0,2.06,ES,1722477144
159,yokadouma,3.5167,15.05,293.29,89,80,1.03,CM,1722477352
160,slave lake,55.2834,-114.769,291.14,68,0,5.14,CA,1722477270
161,novodvinsk,64.4165,40.8122,287.01,97,87,1.61,RU,1722477354
162,zusmarshausen,48.4,10.6,291.83,91,100,1.41,DE,1722477355
163,rehoboth,-23.3167,17.0833,276.95,31,0,1.57,NA,1722477357
164,stadtoldendorf,51.9,9.65,288.74,90,51,1.26,DE,1722477358
165,coquimbo,-29.9533,-71.3436,286.0,86,100,2.06,CL,1722477110
166,candelaria,13.9311,121.4233,301.5,83,100,1.34,PH,1722477360
167,kapit,2.0167,112.9333,301.42,73,25,0.7,MY,1722477361
168,abepura,-2.6333,140.5833,304.6,66,20,2.06,ID,1722477362
169,broken hill,-31.95,141.4333,287.08,33,0,4.3,AU,1722477363
170,mount pearl,47.5166,-52.7813,293.13,90,20,7.72,CA,1722477364
171,idfu,24.9803,32.8747,304.89,22,57,2.82,EG,1722477365
172,brookings,44.3114,-96.7984,295.34,100,100,8.23,US,1722477366
173,oranjemund,-28.55,16.4333,283.96,72,0,3.58,NA,1722477368
174,keflavik,64.0049,-22.5624,283.39,87,75,3.6,IS,1722477369
175,saint-felicien,48.6501,-72.4491,294.53,100,75,1.03,CA,1722477370
176,el sauzal de rodriguez,31.9,-116.6833,293.94,62,40,2.15,MX,1722477371
177,tarawa,1.419,172.984,304.2,70,20,3.6,KI,1722477372
178,haiku-pauwela,20.9219,-156.3051,302.13,67,40,10.8,US,1722477373
179,pangody,65.85,74.4859,293.68,63,26,2.18,RU,1722477374
180,galliano,29.4422,-90.2992,302.15,74,58,2.98,US,1722477375
181,avarua,-21.2078,-159.775,296.18,60,100,4.63,CK,1722477376
182,vilyuysk,63.7553,121.6247,287.59,43,95,2.47,RU,1722477377
183,korla,41.7597,86.1469,302.6,31,78,4.31,CN,1722477344
184,silopi,37.2497,42.4694,297.8,20,0,2.14,TR,1722477380
185,palmer,42.1584,-72.3287,297.03,82,100,2.57,US,1722477381
186,crane,31.3974,-102.3501,306.26,30,1,8.78,US,1722477311
187,kassala,15.451,36.4,298.09,76,100,4.96,SD,1722477383
188,vylkove,45.4021,29.586,291.92,59,0,2.41,UA,1722477384
189,nanao,37.05,136.9667,303.26,62,85,1.1,JP,1722477385
190,isla del bosque,22.7333,-105.85,301.58,80,75,3.01,MX,1722477386
191,kavaratti,10.5669,72.642,300.02,87,100,5.98,IN,1722477387
192,loharu,28.45,75.8167,299.33,89,100,5.07,IN,1722477388
193,tazovsky,67.4667,78.7,288.37,85,97,5.0,RU,1722477389
194,egilsstadir,65.2653,-14.3948,284.1,76,100,3.6,IS,1722477390
195,el granada,37.5027,-122.4694,298.44,84,95,4.53,US,1722477392
196,qaqortoq,60.7167,-46.0333,279.79,72,10,2.75,GL,1722477393
197,dudinka,69.4058,86.1778,295.94,44,82,2.53,RU,1722477394
198,katerero,-1.4,31.7333,292.99,74,50,1.1,TZ,1722477395
199,kingston,17.997,-76.7936,303.68,70,20,6.17,JM,1722477008
200,afaahiti,-17.75,-149.2833,297.08,59,48,7.25,PF,1722477397
201,kalpatta,11.6106,76.0822,293.67,96,100,0.81,IN,1722477398
202,chinde,26.8212,87.7095,299.73,89,65,1.47,NP,1722477399
203,moires,35.0532,24.8744,298.57,54,0,2.68,GR,1722477400
204,thaba-tseka,-29.522,28.6084,276.12,55,0,2.01,LS,1722477402
205,chui,-33.6971,-53.4616,286.93,90,99,2.82,UY,1722477403
206,choibalsan,48.0667,114.5,291.14,90,100,3.23,MN,1722477404
207,lodja,-3.4833,23.4333,296.35,56,44,0.25,CD,1722477405
208,shihezi,44.3,86.0333,304.73,23,0,1.04,CN,1722477406
209,bocas del toro,9.3333,-82.25,296.51,78,100,0.91,PA,1722477407
210,nizhneudinsk,54.9076,99.0276,293.59,81,10,2.42,RU,1722477408
211,hannibal,39.7084,-91.3585,300.08,72,1,2.45,US,1722477202
212,mejit,10.2753,170.8646,301.56,78,25,5.67,MH,1722477410
213,usogorsk,63.4106,48.6872,288.27,97,100,1.62,RU,1722477413
214,laguna,38.421,-121.4238,309.77,32,0,4.63,US,1722477343
215,ambositra,-20.5167,47.25,280.82,90,71,0.68,MG,1722477415
216,la passe,45.5549,-0.8967,296.28,96,25,3.39,FR,1722477416
217,fuerte olimpo,-21.0415,-57.8738,296.98,37,0,2.76,PY,1722477417
218,coeur d'alene,47.6777,-116.7805,304.56,29,0,3.09,US,1722477121
219,howard springs,-12.497,131.047,302.1,64,24,3.96,AU,1722477420
220,huanggang,23.677,116.9996,303.09,74,5,3.38,CN,1722477421
221,dabou,5.3256,-4.3769,296.12,93,100,4.85,CI,1722477422
222,cidreira,-30.1811,-50.2056,288.35,93,100,5.82,BR,1722477424
223,ilomantsi,62.6716,30.9328,288.54,98,100,1.97,FI,1722477425
224,st. john's,47.5649,-52.7093,293.59,90,20,7.72,CA,1722477277
225,shurugwi,-19.6702,30.0059,282.99,76,0,1.44,ZW,1722477427
226,iguape,-24.7081,-47.5553,291.22,91,100,2.3,BR,1722477428
227,kodiak,57.79,-152.4072,293.88,37,0,4.12,US,1722477430
228,tazacorte,28.629,-17.9293,295.69,89,0,7.2,ES,1722477431
229,chonchi,-42.6128,-73.8092,282.1,93,100,4.09,CL,1722477242
230,la'ie,21.6477,-157.9253,304.13,70,9,2.68,US,1722477274
231,strezhevoy,60.7333,77.5889,290.85,75,14,1.67,RU,1722477435
232,nago,26.5881,127.9761,305.39,69,20,3.11,JP,1722477436
233,uturoa,-16.7333,-151.4333,296.89,55,56,6.55,PF,1722477342
234,holualoa,19.6228,-155.9522,298.46,73,53,1.34,US,1722477438
235,susuman,62.7833,148.1667,275.89,94,100,2.19,RU,1722477439
236,nikolayevsk-on-amure,53.1406,140.73,295.76,66,100,0.91,RU,1722477242
237,jamestown,42.097,-79.2353,296.95,88,0,1.54,US,1722477442
238,talnakh,69.4865,88.3972,295.79,40,100,0.74,RU,1722477443
239,brak,27.5496,14.2714,301.19,39,0,6.54,LY,1722477444
240,ixtapa,20.7,-105.2,300.5,85,100,1.48,MX,1722477446
241,tres arroyos,-38.3739,-60.2798,284.86,78,100,5.71,AR,1722477447
242,beyneu,45.3167,55.2,299.58,55,74,5.28,KZ,1722477448
243,sao joao da barra,-21.6403,-41.0511,294.85,70,34,5.54,BR,1722477449
244,guben,51.9499,14.7145,293.86,65,100,1.89,DE,1722477451
245,tagta,41.6504,59.9164,294.12,49,0,2.06,TM,1722477452
246,nar'yan-mar,67.6713,53.087,290.45,85,100,3.54,RU,1722477453
247,uporovo,56.3109,66.2693,292.28,90,92,2.17,RU,1722477454
248,el bauga,18.262,33.9081,301.98,60,100,3.88,SD,1722477455
249,santa rosa de calamuchita,-32.0691,-64.5363,284.31,80,100,1.73,AR,1722477344
250,essaouira,31.5125,-9.77,295.87,83,0,3.09,MA,1722477262
251,persembe,41.0656,37.7714,292.6,81,29,3.04,TR,1722477458
252,sandnessjoen,66.0217,12.6316,285.44,75,67,6.66,NO,1722477459
253,carnarvon,-24.8667,113.6333,293.19,71,0,8.79,AU,1722477460
254,coron,11.9986,120.2043,303.46,63,100,2.08,PH,1722477462
255,bandon,51.7469,-8.7425,289.92,92,8,2.17,IE,1722477463
256,tanabe,33.7333,135.3667,304.71,66,20,3.6,JP,1722477464
257,ceeldheer,3.8488,47.1806,296.68,87,82,6.99,SO,1722477465
258,kayangel,8.0823,134.7173,302.02,74,100,5.15,PW,1722477466
259,petropavlovsk-kamchatsky,53.0452,158.6483,288.48,100,75,3.0,RU,1722477467
260,college,64.8569,-147.8028,290.41,52,75,4.12,US,1722477469
261,geraldton,-28.7667,114.6,290.38,55,81,6.17,AU,1722477470
262,priozersk,61.0393,30.1291,288.71,91,100,1.91,RU,1722477471
263,massawa,15.6097,39.45,306.92,45,99,1.74,ER,1722477473
264,umluj,25.0213,37.2685,303.67,61,3,1.71,SA,1722477474
265,bulgan,48.8125,103.5347,292.27,78,100,2.85,MN,1722477475
266,swift current,50.2834,-107.8014,303.6,21,0,5.14,CA,1722477476
267,puerto el triunfo,13.2833,-88.55,300.4,81,45,1.88,SV,1722477477
268,calp,38.6447,0.0445,299.64,96,0,2.1,ES,1722477478
269,chardara,41.2547,67.9692,301.47,34,77,3.14,KZ,1722477479
270,'alaqahdari dishu,30.4374,63.313,303.6,25,1,7.84,AF,1722477480
271,sitka,57.0531,-135.33,287.09,77,100,2.57,US,1722477481
272,yerofey pavlovich,53.9667,121.9667,293.31,33,0,3.59,RU,1722477482
273,chkalovsk,56.7647,43.2433,287.81,95,100,4.5,RU,1722477483
274,igarka,67.4667,86.5833,293.05,59,13,7.07,RU,1722477485
275,murudeshwara,14.0943,74.4845,298.78,91,100,3.01,IN,1722477486
276,hastings,50.8552,0.5729,293.31,36,100,3.48,GB,1722477487
277,roja,57.5,22.8167,288.68,88,16,3.76,LV,1722477488
278,dapa,9.7594,126.0531,301.25,76,100,2.15,PH,1722477376
279,gao,16.6362,1.637,299.24,69,100,3.62,ML,1722477491
280,ghadamis,30.1337,9.5007,301.96,34,0,4.13,LY,1722477492
281,madera,37.1666,-119.8343,309.39,26,0,2.22,US,1722477493
282,berezovyy,51.6667,135.7,292.53,88,100,2.09,RU,1722477494
283,cascais,38.6979,-9.4215,293.43,76,0,1.79,PT,1722477495
284,saint-pierre,-21.3393,55.4781,292.97,45,0,2.57,RE,1722477497
285,vernon,50.2581,-119.2691,307.55,31,0,0.51,CA,1722477498
286,tidjikja,18.5564,-11.4271,304.96,34,100,6.32,MR,1722477500
287,mahavelona,-17.6848,49.5087,290.99,90,22,2.47,MG,1722477501
288,manthani,18.65,79.6667,297.47,97,100,3.76,IN,1722477502
289,san pedro pochutla,15.7333,-96.4667,299.1,92,100,1.49,MX,1722477503
290,north elba,44.2434,-73.9543,293.42,98,92,1.86,US,1722477504
291,port saint john's,-31.6229,29.5448,285.34,66,0,2.51,ZA,1722477505
292,san fernando de apure,7.8878,-67.4724,296.08,95,9,1.15,VE,1722477506
293,yuzhno-kurilsk,44.0306,145.8556,291.26,86,64,3.21,RU,1722477508
294,adrar,20.5022,-10.0711,307.94,25,8,4.28,MR,1722477509
295,pandan,14.0453,124.1694,303.42,67,90,1.35,PH,1722477510
296,katsuura,35.1333,140.3,299.69,81,100,6.52,JP,1722477511
297,"laikit, laikit ii (dimembe)",1.4792,124.9735,302.62,58,20,5.14,ID,1722477512
298,puerto asis,0.5133,-76.5007,295.2,88,25,1.5,CO,1722477513
299,salvador,13.8333,-88.9167,298.37,93,100,0.42,SV,1722477101
300,at taj,24.2049,23.2857,301.03,28,100,3.36,LY,1722477515
301,plover,44.4564,-89.544,299.01,73,0,0.0,US,1722477293
302,birsk,55.4211,55.5428,287.96,90,75,1.31,RU,1722477517
303,darien,41.752,-87.974,301.51,76,0,3.6,US,1722477518
304,phan thiet,10.9333,108.1,302.69,71,90,3.95,VN,1722477519
305,delyatyn,48.5235,24.6247,288.37,57,22,3.41,UA,1722477521
306,howrah,22.5892,88.3103,301.15,89,100,2.06,IN,1722477522
307,belmonte,-15.8631,-38.8828,295.15,82,1,2.57,BR,1722477523
308,kapuskasing,49.4169,-82.4331,299.2,78,20,2.06,CA,1722477421
309,camana,-16.6228,-72.7111,289.36,84,29,2.49,PE,1722477525
310,zeytinburnu,40.9944,28.9042,295.08,72,0,3.6,TR,1722477526
311,lebu,-37.6167,-73.65,284.95,95,100,12.74,CL,1722477527
312,bayevo,53.2833,80.7667,296.01,57,4,2.2,RU,1722477528
313,afif,23.9065,42.9172,298.43,33,34,4.92,SA,1722477529
314,vrbas,45.5714,19.6408,290.91,35,4,1.11,RS,1722477530
315,nevel'sk,46.6733,141.8633,292.6,77,100,5.05,RU,1722477532
316,aykol,38.1751,77.2132,302.72,30,79,1.06,CN,1722477533
317,lijiang,26.8688,100.2207,294.09,69,0,0.49,CN,1722477534
318,brewton,31.1052,-87.0722,302.72,91,64,2.49,US,1722477535
319,port elizabeth,-33.918,25.5701,283.31,91,0,3.6,ZA,1722477536
320,orchard homes,46.8633,-114.0484,302.92,36,0,1.79,US,1722477537
321,taltal,-25.4,-70.4833,287.85,76,100,0.53,CL,1722477538
322,mazagao,-0.115,-51.2894,299.18,95,30,1.88,BR,1722477540
323,hilo,19.7297,-155.09,301.0,72,0,4.63,US,1722477256
324,fada,7.25,4.0667,294.56,99,100,1.21,NG,1722477542
325,urzhar,47.093,81.6294,300.55,32,0,3.44,KZ,1722477545
326,lidzbark warminski,54.1259,20.5795,285.3,87,3,3.18,PL,1722477546
327,obo,5.3998,26.4869,293.04,99,100,1.13,CF,1722477547
328,sabang,5.8933,95.3214,301.55,71,100,2.87,ID,1722477548
329,bahia honda,22.9036,-83.1592,300.26,84,50,2.96,CU,1722477549
330,taoudenni,22.6783,-3.9836,307.73,10,0,9.14,ML,1722477550
331,jianguang,28.1938,115.7836,305.82,59,26,4.56,CN,1722477551
332,remire-montjoly,4.9167,-52.2667,298.17,94,0,1.54,GF,1722477552
333,padang,-0.9492,100.3543,299.18,72,31,0.42,ID,1722477553
334,newman,37.3138,-121.0208,309.28,42,73,1.79,US,1722477554
335,sao geraldo do araguaia,-6.4006,-48.555,298.3,34,23,1.86,BR,1722477556
336,yulinshi,38.2906,109.7494,301.64,38,58,4.49,CN,1722477557
337,mahajanga,-15.7167,46.3167,291.16,72,0,1.54,MG,1722477558
338,villa santa rita,-34.6108,-58.481,289.87,87,0,8.05,AR,1722477559
339,waajid,3.8096,43.2463,296.42,75,90,8.57,SO,1722477561
340,weno,7.4515,151.8468,305.12,74,20,1.54,FM,1722477562
341,nichinan,31.6,131.3667,303.97,60,4,1.42,JP,1722477563
342,nova vicosa,-17.8919,-39.3719,295.5,88,24,5.18,BR,1722477565
343,nema,57.5067,50.5011,286.69,94,12,1.42,RU,1722477567
344,takoradi,4.8845,-1.7554,296.58,92,100,5.16,GH,1722477568
345,hithadhoo,-0.6,73.0833,301.94,76,82,4.74,MV,1722477569
346,vadso,70.0744,29.7487,286.24,82,75,9.26,NO,1722477570
347,gasteiz / vitoria,42.85,-2.6667,292.39,90,0,0.45,ES,1722477571
348,rongelap,11.1635,166.8941,301.49,78,8,5.99,MH,1722477572
349,paracuru,-3.41,-39.0306,300.43,77,10,6.07,BR,1722477574
350,sorong,-0.8833,131.25,301.12,77,100,4.54,ID,1722477575
351,singaraja,-8.112,115.0882,302.05,71,10,2.29,ID,1722477576
352,salinopolis,-0.6136,-47.3561,299.87,78,4,4.76,BR,1722477577
353,ganghwa-gun,37.7472,126.4856,304.09,85,60,5.3,KR,1722477578
354,kapa'a,22.0752,-159.319,300.33,72,40,6.69,US,1722477579
355,ha'il,27.5219,41.6907,303.16,23,0,1.03,SA,1722477580
356,gereida,11.2811,25.1414,295.54,93,99,2.86,SD,1722477581
357,namtsy,62.7161,129.6658,287.7,35,47,4.28,RU,1722477582
358,kodinsk,58.6881,99.1844,287.18,98,100,2.18,RU,1722477583
359,yarkovo,57.4028,67.0786,291.98,94,89,3.71,RU,1722477584
360,farap,39.1704,63.6116,297.15,33,0,2.06,TM,1722477585
361,sao gabriel,-30.3364,-54.32,288.79,90,82,4.66,BR,1722477587
362,bardai,11.65,7.2333,294.65,92,100,3.71,NG,1722477588
363,lydenburg,-25.0978,30.4597,279.55,87,0,0.39,ZA,1722477589
364,malango,-2.9627,119.9001,297.95,78,64,1.55,ID,1722477590
365,saudarkrokur,65.7461,-19.6394,283.94,83,100,1.76,IS,1722477591
366,celestun,20.8667,-90.4,300.87,79,13,7.35,MX,1722477592
367,buchanan,5.8808,-10.0467,297.55,88,100,5.24,LR,1722477593
368,ocean city,39.2776,-74.5746,298.29,88,9,0.89,US,1722477594
369,vila franca do campo,37.7167,-25.4333,294.38,87,39,1.8,PT,1722477595
370,gobabis,-22.45,18.9667,280.45,23,0,3.21,NA,1722477596
371,fauske,67.2588,15.3918,287.17,99,100,1.57,NO,1722477597
372,dauphin,51.1494,-100.0502,299.23,57,0,3.09,CA,1722477361
373,sereflikochisar,38.9393,33.5386,292.62,53,0,5.02,TR,1722477600
374,tolanaro,-25.0319,46.9987,289.19,100,20,1.03,MG,1722477317
375,yashkul',46.1711,45.3435,295.25,47,2,4.16,RU,1722477607
376,quellon,-43.1167,-73.6167,282.65,92,100,9.4,CL,1722477608
377,al hayy,32.1735,46.0433,309.58,16,0,8.8,IQ,1722477609
378,gorodishche,48.8045,44.4744,289.64,72,0,3.0,RU,1722477610
379,urangan,-25.3,152.9,291.27,47,1,4.74,AU,1722477611
380,sarupathar,26.1984,93.8094,301.62,79,100,1.49,IN,1722477612
381,norrtalje,59.758,18.705,287.6,82,14,3.0,SE,1722477613
382,mount sterling,38.0565,-83.9433,294.18,94,0,0.0,US,1722477615
383,yaring,6.8662,101.3689,301.64,79,100,2.45,TH,1722477616
384,sao miguel do tapuio,-5.5036,-41.3233,297.42,34,0,3.62,BR,1722477617
385,ust'-ilimsk,58.0006,102.6619,285.0,91,100,2.56,RU,1722477618
386,antofagasta,-23.65,-70.4,287.75,88,19,1.38,CL,1722477619
387,sparti,37.0733,22.4297,298.68,43,0,2.04,GR,1722477620
388,de queen,34.0379,-94.3413,302.22,63,0,2.62,US,1722477621
389,mahina,-17.5065,-149.489,298.02,50,75,8.75,PF,1722477622
390,camiri,-20.05,-63.5167,289.61,65,2,0.68,BO,1722477623
391,kerikeri,-35.2268,173.9474,288.66,91,90,1.08,NZ,1722477624
392,ouallam,14.3188,2.0866,299.07,77,100,2.88,NE,1722477626
393,alice springs,-23.7,133.8833,289.9,23,0,4.12,AU,1722477627
394,bafoulabe,13.8065,-10.8321,298.61,86,97,2.33,ML,1722477628
395,kiruna,67.8557,20.2251,285.66,94,100,4.12,SE,1722477629
396,tago,9.0211,126.2317,302.76,67,100,0.4,PH,1722477630
397,hell-ville,-13.4,48.2667,297.25,69,82,3.65,MG,1722477631
398,new glasgow,45.5834,-62.6486,296.92,89,100,4.5,CA,1722477632
399,slavgorod,52.9978,78.6449,297.61,54,37,1.41,RU,1722477633
400,khorinsk,52.1657,109.7726,298.07,48,100,2.89,RU,1722477634
401,borogontsy,62.6683,131.1683,281.84,71,99,1.26,RU,1722477635
402,hadibu,12.65,54.0333,298.6,82,91,9.42,YE,1722477636
403,mul,20.0667,79.6667,296.85,97,100,4.2,IN,1722477638
404,kyaikkami,16.08,97.5675,299.87,88,100,5.94,MM,1722477640
405,awjilah,29.1081,21.2869,300.71,41,0,4.24,LY,1722477641
406,caucete,-31.6518,-68.2811,285.74,34,98,1.36,AR,1722477643
407,springbok,-29.6643,17.8865,278.97,32,0,3.0,ZA,1722477644
408,vetluzhskiy,58.3902,45.4654,286.63,94,94,1.16,RU,1722477645
409,noumea,-22.2763,166.4572,294.82,99,100,3.08,NC,1722477646
410,pudasjarvi,65.3833,26.9167,285.74,98,100,1.82,FI,1722477647
411,masvingo,-20.0637,30.8277,284.82,83,0,1.7,ZW,1722477649
412,karratha,-20.7377,116.8463,294.99,45,100,5.99,AU,1722477650
413,bel ombre,-4.6167,55.4167,299.06,89,40,6.69,SC,1722477651
414,al qabil,22.571,58.6947,301.96,61,74,2.42,OM,1722477652
415,jumla,29.2747,82.1838,291.04,84,100,1.01,NP,1722477654
416,lautoka,-17.6167,177.4667,300.07,65,20,5.66,FJ,1722477655
417,sola,-13.8833,167.55,299.07,75,20,7.89,VU,1722477656
418,balkanabat,39.5108,54.3671,300.32,57,8,3.67,TM,1722477658
419,polyarnyy,69.1989,33.4478,282.83,92,99,7.06,RU,1722477660
420,salalah,17.0151,54.0924,296.97,98,100,3.22,OM,1722477662
421,callao,-12.0667,-77.15,291.16,77,100,6.17,PE,1722477641
422,sal rei,16.1833,-22.9167,297.29,79,97,5.65,CV,1722477664
423,priverno,41.4691,13.1856,299.97,56,0,1.05,IT,1722477665
424,malabo,3.75,8.7833,298.07,94,20,1.54,GQ,1722477666
425,bubaque,11.2833,-15.8333,299.82,83,84,6.46,GW,1722477667
426,laojunmiao,39.8333,97.7333,291.69,48,100,2.02,CN,1722477668
427,panagyurishte,42.5,24.1833,288.04,61,0,0.99,BG,1722477670
428,nayoro,44.3506,142.4578,299.12,64,100,2.12,JP,1722477672
429,nuuk,64.1835,-51.7216,281.49,66,100,5.36,GL,1722477673
430,okeechobee,27.2439,-80.8298,300.16,94,0,0.0,US,1722477536
431,talcahuano,-36.7167,-73.1167,284.97,94,100,15.95,CL,1722477675
432,general conesa,-40.1,-64.4333,284.23,55,100,5.95,AR,1722477676
433,west university place,29.718,-95.4338,303.92,78,20,5.66,US,1722477677
434,quartu sant'elena,39.2419,9.1839,300.39,67,0,1.54,IT,1722477678
435,tangalle,6.024,80.7911,298.24,80,100,4.55,LK,1722477680
436,bosobolo,4.1833,19.9,294.6,78,72,0.5,CD,1722477682
437,shingu,33.7333,135.9833,303.81,53,76,2.87,JP,1722477683
438,sisimiut,66.9395,-53.6735,280.13,69,0,4.13,GL,1722477685
439,qaryat suluq,31.6682,20.2521,298.67,48,0,3.86,LY,1722477686
440,paragominas,-2.9667,-47.4833,297.58,62,19,1.83,BR,1722477688
441,turuntayevo,52.2,107.6167,296.2,67,99,0.93,RU,1722477689
442,tomatlan,19.9333,-105.25,297.35,97,100,3.11,MX,1722477690
443,ghazni,33.5536,68.4269,298.39,27,4,2.3,AF,1722477692
444,kone,-21.0595,164.8658,296.73,56,100,3.77,NC,1722477693
445,wenling,28.3669,121.36,302.35,82,29,4.78,CN,1722477694
446,huarmey,-10.0681,-78.1522,290.73,85,0,3.68,PE,1722477695
447,skagen,57.7209,10.5839,288.48,82,11,3.66,DK,1722477696
448,ibaiti,-23.8486,-50.1878,285.91,87,49,1.85,BR,1722477697
449,norwich,52.6278,1.2983,290.36,95,68,2.06,GB,1722477542
450,airuk,7.2772,168.8203,301.84,74,94,4.74,MH,1722477699
451,ancud,-41.8697,-73.8203,282.57,92,100,7.28,CL,1722477700
452,aldinga beach,-35.2793,138.4604,289.51,60,100,5.66,AU,1722477701
453,maturin,9.75,-63.1767,301.06,94,16,3.6,VE,1722477703
454,boguchany,58.3814,97.4531,291.46,90,100,0.39,RU,1722477704
455,lake sebu,6.22,124.6936,297.61,68,39,0.59,PH,1722477705
456,caldicot,51.5866,-2.7574,294.7,79,100,1.7,GB,1722477706
457,serenje,-13.2325,30.2352,283.26,41,4,2.24,ZM,1722477707
458,cabo san lucas,22.8909,-109.9124,304.05,72,10,3.08,MX,1722477550
459,beau vallon,-20.4189,57.6953,290.28,88,20,2.57,MU,1722477709
460,fort bragg,35.139,-79.006,300.47,85,10,2.44,US,1722477710
461,masuguru,-11.3667,38.4167,292.02,77,5,1.21,TZ,1722477711
462,santa cruz,-17.8,-63.1667,295.85,73,0,6.17,BO,1722477507
463,happy valley-goose bay,53.3168,-60.3315,290.32,82,40,6.17,CA,1722477713
464,aral,40.5156,81.2636,302.82,32,29,2.69,CN,1722477714
465,tsiombe,-25.3,45.4833,288.32,85,6,1.35,MG,1722477716
466,merizo village,13.2658,144.6691,303.92,79,92,5.0,GU,1722477717
467,cruzeiro do sul,-29.5128,-51.9853,291.77,79,100,1.4,BR,1722477718
468,malvan,16.0667,73.4667,299.81,86,100,7.35,IN,1722477719
469,las heras,-46.5419,-68.9359,277.63,75,100,2.36,AR,1722477634
470,olinda,-8.0089,-34.8553,299.0,73,40,6.69,BR,1722477605
471,la manga del mar menor,37.6413,-0.7165,300.6,84,0,0.89,ES,1722477722
472,boende,-0.2167,20.8667,296.28,71,17,0.98,CD,1722477723
473,saint-joseph,-21.3667,55.6167,292.36,68,0,1.85,RE,1722477724
474,masterton,-40.9597,175.6575,281.54,88,93,4.54,NZ,1722477725
475,pobiedziska,52.4775,17.2877,291.25,78,100,0.45,PL,1722477561
476,yigo village,13.5361,144.8886,303.23,82,95,5.13,GU,1722477728
477,irtyshsk,53.3333,75.4572,298.8,55,87,1.62,KZ,1722477729
478,yashan,22.1975,109.9419,301.83,82,100,6.63,CN,1722477730
479,rio grande,-32.035,-52.0986,287.56,87,100,4.41,BR,1722477731
480,turkmenbasy,40.0222,52.9552,297.58,88,75,6.17,TM,1722477732
481,alapa,8.6167,4.3833,294.84,94,100,3.43,NG,1722477733
482,cockburn town,21.4612,-71.1419,301.58,85,4,8.79,TC,1722477635
483,grand-bourg,15.8835,-61.3148,299.12,74,100,4.3,GP,1722477735
484,luderitz,-26.6481,15.1594,287.21,45,0,5.29,NA,1722477736
485,uliastay,47.7417,96.8444,285.69,81,100,1.88,MN,1722477737
486,rafiganj,24.8167,84.65,300.23,77,90,3.34,IN,1722477738
487,chapaev,50.2,51.1667,294.28,50,2,4.13,KZ,1722477740
488,twon-brass,4.3151,6.2418,297.97,87,99,6.68,NG,1722477741
489,yamada,39.4667,141.95,296.75,87,100,1.78,JP,1722477742
490,ribeira brava,32.65,-17.0667,295.21,82,0,1.72,PT,1722477743
491,ponta delgada,37.7333,-25.6667,294.55,83,20,3.09,PT,1722477744
492,balimila,18.25,82.1333,298.4,89,99,1.39,IN,1722477745
493,buala,-8.145,159.5921,302.04,71,64,3.7,SB,1722477746
494,gazli,40.1333,63.45,303.69,16,0,4.12,UZ,1722477747
495,verkhnyaya sinyachikha,57.976,61.6673,288.48,95,8,2.31,RU,1722477749
496,sirpur,19.4833,79.6,297.48,94,100,5.03,IN,1722477750
497,porto novo,6.4965,2.6036,298.05,88,100,4.44,BJ,1722477751
498,fisterra,42.9049,-9.2629,292.6,95,99,4.09,ES,1722477752
499,el jadid,33.2549,-8.506,294.65,90,22,5.08,MA,1722477699
500,buenavista del norte,28.3746,-16.861,296.79,76,5,8.95,ES,1722477754
501,gebeit,21.0667,36.3167,299.35,62,49,6.57,SD,1722477755
502,bamboo flat,11.7,92.7167,301.2,89,75,3.6,IN,1722477756
503,basco,20.4487,121.9702,302.96,75,73,5.04,PH,1722477757
504,sydney mines,46.2367,-60.2177,297.04,88,75,3.09,CA,1722477758
505,kralendijk,12.15,-68.2667,302.14,79,0,6.69,BQ,1722477576
506,ligny-en-barrois,48.6886,5.3254,295.56,92,94,0.71,FR,1722477761
507,prince rupert,54.3161,-130.3201,288.2,88,100,2.57,CA,1722477762
508,mermoz boabab,14.7065,-17.4758,300.03,74,20,3.09,SN,1722477763
509,wynyard,-41.0,145.7167,283.43,70,100,3.57,AU,1722477764
510,qusmuryn,52.4503,64.6311,296.57,44,100,4.99,KZ,1722477765
511,mugia,43.1041,-9.2179,292.68,94,100,3.02,ES,1722477766
512,nishinoomote,30.7333,131.0,303.46,79,20,7.2,JP,1722477767
513,kuala sungai baru,2.3594,102.0353,302.61,78,98,3.58,MY,1722477768
514,ciudad lazaro cardenas,17.9583,-102.2,300.86,80,100,0.85,MX,1722477769
515,severo-yeniseyskiy,60.3725,93.0408,289.55,87,63,1.19,RU,1722477770
516,klaksvik,62.2266,-6.589,283.66,92,93,5.2,FO,1722477772
517,hovd,48.0056,91.6419,294.62,35,0,0.5,MN,1722477773
518,sao gabriel da cachoeira,-0.1303,-67.0892,295.26,99,90,1.47,BR,1722477774
519,kimhae,35.2342,128.8811,305.2,74,40,4.63,KR,1722477775
520,pathein,16.7833,94.7333,300.42,88,100,4.36,MM,1722477776
521,magdagachi,53.45,125.8,294.6,32,0,4.4,RU,1722477777
522,shirpur,21.35,74.8833,299.56,84,100,5.35,IN,1722477779
523,kristiansund,63.1115,7.732,285.51,86,75,0.51,NO,1722477780
524,fruita,39.1589,-108.729,304.77,8,0,3.86,US,1722477782
525,saint-philippe,-21.3585,55.7679,292.92,71,0,1.42,RE,1722477784
526,ulladulla,-35.35,150.4667,286.91,58,98,5.93,AU,1722477785
527,harnai,30.1005,67.9374,302.6,64,57,1.49,PK,1722477786
528,guanica,17.9716,-66.908,298.92,72,100,1.62,PR,1722477677
529,emerald,-23.5333,148.1667,293.34,26,0,3.29,AU,1722477788
530,san luis de la loma,17.2706,-100.8939,300.44,78,100,1.0,MX,1722477789
531,kozel'sk,54.0375,35.7716,286.09,96,100,3.4,RU,1722477578
532,yoko,5.5333,12.3167,291.58,98,100,2.0,CM,1722477791
533,junin,-34.5838,-60.9433,289.17,83,100,4.46,AR,1722477608
534,jiangyou,31.7667,104.7167,300.19,84,93,1.03,CN,1722477794
535,port augusta,-32.5,137.7667,289.18,22,23,4.13,AU,1722477795
536,balykchy,42.4557,76.1861,294.27,94,0,1.19,KG,1722477796
537,conduaga,8.862,117.4893,303.7,67,100,1.5,PH,1722477797
538,arawa,-6.2132,155.5367,302.23,78,84,2.32,PG,1722477798
539,n'zeto,-7.2312,12.8666,292.59,89,79,2.9,AO,1722477799
540,mamfe,5.754,9.3123,296.31,95,100,0.72,CM,1722477800
541,darnah,32.767,22.6367,299.49,66,0,7.16,LY,1722477801
542,hobyo,5.3505,48.5268,297.39,83,100,10.53,SO,1722477802
543,new norfolk,-42.7826,147.0587,284.22,61,84,1.38,AU,1722477803
544,vsetin,49.3387,17.9962,290.6,61,100,1.67,CZ,1722477805
545,bayanhongor,46.7167,100.1167,285.97,68,70,0.36,MN,1722477806
546,bikenibeu village,1.3673,173.1241,304.13,70,20,3.09,KI,1722477807
547,barpeta road,26.5028,90.9694,302.27,84,23,1.92,IN,1722477808
548,khandud,36.9513,72.318,290.78,43,0,2.31,AF,1722477809
549,trairi,-3.2778,-39.2689,298.9,79,8,4.9,BR,1722477742
550,las vegas,36.175,-115.1372,314.84,10,0,3.09,US,1722477484
551,amahai,-3.3333,128.9167,299.27,84,82,4.73,ID,1722477812
552,inirida,3.8653,-67.9239,296.02,98,19,1.4,CO,1722477766
553,balabac,7.9868,117.0645,303.49,63,64,0.76,PH,1722477814
554,kearney,40.6995,-99.0815,296.46,92,9,1.73,US,1722477520
555,lashio,22.9333,97.75,293.37,100,100,0.67,MM,1722477817
556,quiberon,47.4841,-3.1196,293.93,73,0,5.34,FR,1722477818
557,saldanha,-33.0117,17.9442,279.18,85,0,4.74,ZA,1722477819
558,al jumum,21.6169,39.6981,303.48,67,35,0.22,SA,1722477820
559,lengshuijiang,27.6881,111.4294,301.65,77,59,2.36,CN,1722477821
560,muravlenko,63.7898,74.523,291.13,64,99,2.12,RU,1722477822
561,miyako,39.6367,141.9525,297.46,85,100,1.68,JP,1722477823
562,bambanglipuro,-7.95,110.2833,299.09,78,100,1.53,ID,1722477824
563,port blair,11.6667,92.75,301.17,89,75,3.6,IN,1722477825
564,rikaze,29.25,88.8833,289.04,44,9,1.53,CN,1722477826
565,necochea,-38.5473,-58.7368,283.99,85,100,4.71,AR,1722477553
566,lloydminster,53.2835,-110.0016,299.27,44,40,3.09,CA,1722477829
567,fazilka,30.4,74.0333,298.87,90,100,10.8,IN,1722477830
568,kenai,60.5544,-151.2583,294.83,34,0,3.6,US,1722477831
569,valdivia,-39.8142,-73.2459,283.2,96,100,3.27,CL,1722477823
570,inhambane,-23.865,35.3833,291.44,83,0,1.47,MZ,1722477833
571,midvagur,62.0511,-7.1939,283.61,100,100,3.6,FO,1722477834
572,balashov,51.5502,43.1667,285.85,96,7,3.46,RU,1722477835
573,hami,42.8,93.45,303.41,26,100,6.6,CN,1722477837
574,parabel',58.6978,81.4825,291.59,79,96,1.41,RU,1722477838
575,ketchikan,55.3422,-131.6461,290.56,67,100,0.0,US,1722477840
576,tura,25.5198,90.2201,300.41,82,28,1.39,IN,1722477842
577,ponta grossa,-25.095,-50.1619,284.86,93,67,3.53,BR,1722477843
578,bilgoraj,50.5411,22.722,290.58,59,100,0.61,PL,1722477844
579,montecatini-terme,43.8835,10.7736,299.19,75,0,2.68,IT,1722477845
580,pokhara,28.2333,83.9833,298.17,80,56,0.87,NP,1722477701
581,visakhapatnam,17.69,83.2093,301.09,94,75,4.12,IN,1722477847
