City_ID,City,Lat,Lng,Max Temp,Humidity,Cloudiness,Wind Speed,Country,Date
0,bom jardim,-7.7958,-35.5872,25.310000000000002,58,97,7.12,BR,1722535602
1,karpinsk,59.7654,60.0085,14.140000000000043,96,97,1.38,RU,1722535604
2,olonkinbyen,70.9221,-8.7187,5.080000000000041,99,100,5.35,SJ,1722535605
3,sisimiut,66.9395,-53.6735,11.82000000000005,52,2,3.26,GL,1722535606
4,nuuk,64.1835,-51.7216,15.340000000000032,41,0,8.23,GL,1722535572
5,edinburgh of the seven seas,-37.0676,-12.3116,13.080000000000041,77,25,15.2,SH,1722535608
6,aasiaat,68.7098,-52.8699,3.0300000000000296,84,68,3.25,GL,1722535609
7,egilsstadir,65.2653,-14.3948,11.350000000000023,88,100,2.25,IS,1722535611
8,constantia,44.1833,28.65,27.379999999999995,59,59,6.54,RO,1722535612
9,adamstown,-25.066,-130.1015,20.0,89,100,4.12,PN,1722535613
10,port-aux-francais,-49.35,70.2167,4.010000000000048,90,83,12.04,TF,1722535615
11,georgetown,5.4112,100.3354,28.960000000000036,75,20,1.54,MY,1722535427
12,narvik,68.4384,17.4272,14.03000000000003,96,100,1.97,NO,1722535617
13,atherton,53.5237,-2.4935,23.27000000000004,57,35,4.02,GB,1722535618
14,hawaiian paradise park,19.5933,-154.9731,24.390000000000043,84,40,3.09,US,1722535619
15,hermanus,-34.4187,19.2345,7.670000000000016,78,14,1.22,ZA,1722535621
16,waitangi,-43.9535,-176.5597,7.1200000000000045,90,60,0.89,NZ,1722535622
17,pontcharra,45.4333,6.0167,28.970000000000027,77,0,1.37,FR,1722535623
18,arauca,7.0847,-70.7591,31.0,70,63,1.54,CO,1722535625
19,blackmans bay,-43.0167,147.3167,5.2900000000000205,93,95,0.45,AU,1722535626
20,albany,42.6001,-73.9662,32.24000000000001,55,0,1.34,US,1722535422
21,uray,60.1247,64.7758,16.879999999999995,83,85,0.09,RU,1722535628
22,walvis bay,-22.9575,14.5053,11.160000000000025,76,0,3.86,NA,1722535629
23,grand falls-windsor,48.9332,-55.6649,28.610000000000014,76,85,0.89,CA,1722535630
24,chibougamau,49.9168,-74.3659,26.79000000000002,50,75,2.06,CA,1722535342
25,iqaluit,63.7506,-68.5145,7.610000000000014,65,94,5.36,CA,1722535632
26,laojunmiao,39.8333,97.7333,17.650000000000034,64,96,2.38,CN,1722535633
27,grytviken,-54.2811,-36.5092,-4.6299999999999955,57,14,1.55,GS,1722535635
28,hithadhoo,-0.6,73.0833,28.32000000000005,79,51,5.18,MV,1722535636
29,lisala,2.15,21.5167,25.410000000000025,70,93,1.0,CD,1722535489
30,port elizabeth,-33.918,25.5701,12.830000000000041,89,0,2.06,ZA,1722535398
31,nogliki,51.8333,143.1667,14.620000000000005,96,100,1.36,RU,1722535639
32,bilibino,68.0546,166.4372,4.360000000000014,60,70,1.17,RU,1722535640
33,yellowknife,62.456,-114.3525,14.120000000000005,72,43,4.92,CA,1722535641
34,caleta de carquin,-11.0925,-77.6267,19.860000000000014,74,24,4.41,PE,1722535642
35,dossor,47.5272,52.9811,28.910000000000025,28,60,7.98,KZ,1722535643
36,westport,41.1415,-73.3579,34.14000000000004,57,0,5.66,US,1722535447
37,santo antonio do ica,-3.1022,-67.9397,34.620000000000005,40,57,1.58,BR,1722535645
38,labuan,5.2767,115.2417,26.480000000000018,84,100,2.53,MY,1722535647
39,lluta,-16.0147,-72.0142,15.270000000000039,22,0,5.15,PE,1722535648
40,west island,-12.1568,96.8225,26.99000000000001,69,40,6.17,CC,1722535649
41,vorgashor,67.5833,63.95,16.760000000000048,79,74,4.15,RU,1722535650
42,road town,18.4167,-64.6167,29.02000000000004,74,40,4.63,VG,1722535651
43,thompson,55.7435,-97.8558,26.29000000000002,40,45,5.74,CA,1722535652
44,chonchi,-42.6128,-73.8092,8.950000000000045,98,100,3.57,CL,1722535653
45,anadyr,64.75,177.4833,6.28000000000003,81,75,3.0,RU,1722535654
46,catumbela,-12.4314,13.5472,20.360000000000014,83,71,1.38,AO,1722535655
47,buala,-8.145,159.5921,26.0,85,45,2.52,SB,1722535656
48,altai,46.3722,96.2583,12.340000000000032,58,0,2.41,MN,1722535658
49,hamilton,39.1834,-84.5333,31.79000000000002,74,75,2.57,US,1722535659
50,saint john,45.2727,-66.0677,18.57000000000005,100,100,5.14,CA,1722535452
51,badger,64.8,-147.5333,12.78000000000003,79,75,0.0,US,1722535662
52,altamira,-3.2033,-52.2064,34.39000000000004,34,41,2.08,BR,1722535663
53,broome,42.2506,-75.833,32.05000000000001,55,0,1.34,US,1722535664
54,ilulissat,69.2167,-51.1,3.0100000000000477,100,100,2.06,GL,1722535665
55,kodiak,57.79,-152.4072,12.730000000000018,76,0,2.06,US,1722535666
56,ust-nera,64.5667,143.2,3.640000000000043,98,100,2.88,RU,1722535667
57,novo oriente,-5.5344,-40.7742,34.19,22,5,4.48,BR,1722535669
58,villa ojo de agua,-29.5,-63.6938,27.07000000000005,33,100,10.38,AR,1722535670
59,lorengau,-2.0226,147.2712,27.49000000000001,80,49,3.85,PG,1722535671
60,bethel,41.3712,-73.414,33.360000000000014,59,20,0.45,US,1722535558
61,howard springs,-12.497,131.047,21.950000000000045,88,44,2.07,AU,1722535673
62,saipan,15.1355,145.701,28.390000000000043,89,40,4.63,MP,1722535674
63,puerto natales,-51.7236,-72.4875,3.25,93,75,0.0,CL,1722535675
64,ixtapa,20.7,-105.2,32.900000000000034,52,75,1.79,MX,1722535676
65,ushuaia,-54.8,-68.3,3.7900000000000205,96,100,0.57,AR,1722535620
66,tiksi,71.6872,128.8694,1.8500000000000227,80,67,0.84,RU,1722535678
67,pacific grove,36.6177,-121.9166,24.660000000000025,79,0,4.12,US,1722535679
68,jamestown,42.097,-79.2353,31.400000000000034,78,100,2.57,US,1722535681
69,onega,63.9061,38.1404,14.720000000000027,92,70,2.42,RU,1722535682
70,petropavlovsk-kamchatsky,53.0452,158.6483,12.330000000000041,100,75,1.0,RU,1722535683
71,vilyuchinsk,52.9306,158.4028,13.150000000000034,94,76,0.79,RU,1722535684
72,urzhum,57.1141,49.9996,15.79000000000002,87,71,2.47,RU,1722535685
73,new norfolk,-42.7826,147.0587,5.9500000000000455,97,92,0.94,AU,1722535686
74,touros,-5.1989,-35.4608,27.370000000000005,59,9,8.58,BR,1722535687
75,ciudad bolivar,8.1222,-63.5497,33.98000000000002,45,17,2.57,VE,1722535587
76,nasaud,47.2833,24.4,23.629999999999995,45,95,1.51,RO,1722535689
77,faya-largeau,17.9257,19.1043,31.379999999999995,51,100,6.94,TD,1722535690
78,dhuusamarreeb,5.535,46.3861,28.24000000000001,47,92,11.33,SO,1722535691
79,hilo,19.7297,-155.09,24.79000000000002,79,40,3.09,US,1722535693
80,port mathurin,-19.6833,63.4167,22.629999999999995,74,0,3.3,MU,1722535694
81,poringland,52.5676,1.3496,21.689999999999998,73,0,4.12,GB,1722535695
82,merizo village,13.2658,144.6691,27.310000000000002,93,100,7.04,GU,1722535696
83,colonia,50.9333,6.95,21.650000000000034,90,100,4.63,DE,1722535697
84,port-vila,-17.7338,168.3219,20.78000000000003,88,20,2.57,VU,1722535477
85,fort mcmurray,56.7268,-111.381,22.850000000000023,43,10,2.24,CA,1722535699
86,santa ana,33.7456,-117.8678,28.730000000000018,64,75,3.09,US,1722535488
87,puerto ayora,-0.7393,-90.3518,25.980000000000018,82,28,5.17,EC,1722535701
88,alice springs,-23.7,133.8833,5.75,49,8,2.06,AU,1722535702
89,carlsbad,33.1581,-117.3506,29.170000000000016,78,0,3.6,US,1722535704
90,boende,-0.2167,20.8667,27.400000000000034,54,61,1.2,CD,1722535705
91,mahendragarh,28.2833,76.15,26.27000000000004,91,100,2.32,IN,1722535706
92,eydhafushi,5.1033,73.0708,28.689999999999998,74,99,4.08,MV,1722535708
93,invercargill,-46.4,168.35,2.7900000000000205,91,97,0.45,NZ,1722535709
94,kalamata,37.0389,22.1142,27.870000000000005,57,20,1.54,GR,1722535713
95,mount pearl,47.5166,-52.7813,29.620000000000005,62,75,7.72,CA,1722535434
96,tindouf,27.6711,-8.1474,42.129999999999995,7,0,9.62,DZ,1722535715
97,tongliao,43.6125,122.2653,21.370000000000005,96,94,3.01,CN,1722535716
98,guajara mirim,-10.7828,-65.3394,38.120000000000005,19,0,1.96,BR,1722535717
99,alta,69.9689,23.2717,17.590000000000032,77,75,4.12,NO,1722535466
100,wailua homesteads,22.0669,-159.378,25.439999999999998,73,20,5.14,US,1722535721
101,puerto baquerizo moreno,-0.9,-89.6,23.55000000000001,83,75,2.06,EC,1722535690
102,pisco,-13.7,-76.2167,18.340000000000032,82,75,4.63,PE,1722535724
103,nova vicosa,-17.8919,-39.3719,23.710000000000036,77,55,6.86,BR,1722535725
104,morehead city,34.7229,-76.726,33.35000000000002,77,0,7.72,US,1722535726
105,shalkar,47.8288,59.6258,28.32000000000005,26,19,5.7,KZ,1722535727
106,berezovyy,51.6667,135.7,14.580000000000041,82,100,1.23,RU,1722535728
107,cabo san lucas,22.8909,-109.9124,32.610000000000014,70,75,4.02,MX,1722535729
108,stanley,54.868,-1.6985,20.400000000000034,79,20,1.54,GB,1722535730
109,zeya,53.75,127.2667,10.420000000000016,79,40,2.94,RU,1722535732
110,susuman,62.7833,148.1667,1.8700000000000045,87,94,1.76,RU,1722535733
111,kupang,-10.1667,123.5833,26.32000000000005,83,35,2.57,ID,1722535734
112,luderitz,-26.6481,15.1594,15.420000000000016,53,0,6.87,NA,1722535735
113,margaret river,-33.95,115.0667,11.04000000000002,62,93,3.06,AU,1722535736
114,wanning,18.8003,110.3967,26.80000000000001,89,3,4.8,CN,1722535738
115,kuhmo,64.1333,29.5167,14.960000000000036,86,100,2.02,FI,1722535739
116,sao miguel do araguaia,-13.275,-50.1628,35.54000000000002,16,0,3.07,BR,1722535740
117,kanel,15.4916,-13.1763,37.30000000000001,35,99,6.27,SN,1722535741
118,bredasdorp,-34.5322,20.0403,9.400000000000034,88,4,1.54,ZA,1722535669
119,las animas,-39.8087,-73.2182,12.080000000000041,94,100,5.56,CL,1722535743
120,vishnyeva,54.7122,26.5225,15.29000000000002,84,51,2.45,BY,1722535744
121,mirny,62.5353,113.9611,7.5400000000000205,73,53,1.09,RU,1722535745
122,longyearbyen,78.2186,15.6401,13.910000000000025,62,0,1.54,SJ,1722535746
123,namibe,-15.1961,12.1522,17.0,86,37,2.45,AO,1722535747
124,maloye ganyushkino,46.6,49.2667,26.28000000000003,30,36,3.86,KZ,1722535749
125,axim,4.8699,-2.2405,23.660000000000025,90,100,4.21,GH,1722535750
126,udachny,66.4167,112.4,7.980000000000018,62,7,1.7,RU,1722535562
127,buulobarde,3.8538,45.5674,25.170000000000016,65,94,9.15,SO,1722535752
128,greymouth,-42.4667,171.2,-0.16999999999995907,89,8,3.86,NZ,1722535753
129,dhidhdhoo,6.8833,73.1,28.600000000000023,79,100,5.86,MV,1722535754
130,batie,9.8833,-2.9167,26.939999999999998,71,97,1.78,BF,1722535755
131,gardnerville ranchos,38.8882,-119.7413,31.55000000000001,23,0,2.24,US,1722535756
132,corum,40.5,34.75,17.430000000000007,59,0,2.93,TR,1722535758
133,st. john's,47.5649,-52.7093,30.08000000000004,61,75,7.72,CA,1722535503
134,kununurra,-15.7667,128.7333,14.990000000000009,82,3,0.0,AU,1722535760
135,port alfred,-33.5906,26.891,14.510000000000048,67,0,2.88,ZA,1722535761
136,darwin,-12.4611,130.8418,21.99000000000001,78,51,2.06,AU,1722535762
137,la ronge,55.1001,-105.2842,21.0,46,2,6.87,CA,1722535763
138,cadale,2.7603,46.3222,25.010000000000048,84,76,8.71,SO,1722535764
139,kegen,43.0197,79.2203,15.720000000000027,51,1,2.45,KZ,1722535765
140,isafjordur,66.0755,-23.124,10.020000000000039,76,75,10.8,IS,1722535766
141,kanniyakumari,8.0833,77.5667,26.03000000000003,80,100,8.25,IN,1722535767
142,mutuali,-14.8706,37.0044,19.890000000000043,42,0,2.88,MZ,1722535768
143,punta del este,-34.9667,-54.95,25.060000000000002,78,0,4.63,UY,1722535521
144,tezu,27.9167,96.1667,24.210000000000036,96,88,1.95,IN,1722535771
145,qashyr,53.0675,76.1036,23.510000000000048,58,100,1.58,KZ,1722535772
146,ribeira grande,38.5167,-28.7,27.220000000000027,74,40,4.63,PT,1722535773
147,papatowai,-46.5619,169.4708,5.3700000000000045,90,97,0.92,NZ,1722535774
148,panyam,9.4167,9.2167,20.03000000000003,93,100,1.74,NG,1722535775
149,broken hill,-31.95,141.4333,7.510000000000048,51,11,4.66,AU,1722535776
150,benguela,-12.5763,13.4055,20.420000000000016,82,59,1.64,AO,1722535777
151,sinop,41.7711,34.8709,18.24000000000001,87,0,1.46,TR,1722535779
152,talnakh,69.4865,88.3972,19.0,51,93,1.66,RU,1722535780
153,hadibu,12.65,54.0333,25.79000000000002,80,90,9.68,YE,1722535782
154,ancud,-41.8697,-73.8203,9.129999999999995,92,100,9.42,CL,1722535659
155,preobrazheniye,42.9019,133.9064,21.879999999999995,99,38,1.96,RU,1722535785
156,casino,-28.8667,153.05,6.430000000000007,90,2,1.87,AU,1722535788
157,mo i rana,66.3128,14.1428,15.260000000000048,77,75,3.13,NO,1722535789
158,calama,-22.4667,-68.9333,23.27000000000004,9,0,10.8,CL,1722535659
159,san patricio,28.017,-97.5169,33.98000000000002,50,7,5.76,US,1722535792
160,turaif,31.6725,38.6637,32.14000000000004,12,0,4.12,SA,1722535794
161,qaqortoq,60.7167,-46.0333,7.510000000000048,73,25,4.09,GL,1722535795
162,nishinoomote,30.7333,131.0,28.629999999999995,86,4,7.0,JP,1722535796
163,khanty-mansiysk,61.0042,69.0019,19.060000000000002,100,40,3.0,RU,1722535797
164,bel ombre,-4.6167,55.4167,25.600000000000023,88,58,7.36,SC,1722535798
165,askiz,53.1319,90.5264,17.980000000000018,80,62,0.67,RU,1722535801
166,minas de marcona,-15.2119,-75.1103,19.650000000000034,50,8,2.63,PE,1722535804
167,shimokizukuri,40.8061,140.3861,21.640000000000043,98,16,1.2,JP,1722535805
168,kodinsk,58.6881,99.1844,10.460000000000036,91,70,1.01,RU,1722535806
169,wuxi,31.5689,120.2886,31.25,72,58,1.02,CN,1722535808
170,tadine,-21.55,167.8833,18.33000000000004,78,100,4.54,NC,1722535809
171,levokumka,44.2317,43.15,25.140000000000043,41,74,1.0,RU,1722535810
172,whitehorse,60.7161,-135.0538,11.010000000000048,87,100,0.45,CA,1722535811
173,maues,-3.3836,-57.7186,38.80000000000001,19,38,2.41,BR,1722535812
174,puerto aysen,-45.4,-72.7,7.650000000000034,100,100,1.4,CL,1722535813
175,palmares do sul,-30.2578,-50.5097,20.760000000000048,63,4,4.9,BR,1722535815
176,afaahiti,-17.75,-149.2833,19.930000000000007,59,48,6.07,PF,1722535816
177,mar del plata,-38.0023,-57.5575,19.180000000000007,77,0,3.6,AR,1722535428
178,wahpeton,46.2652,-96.6059,27.400000000000034,74,0,5.14,US,1722535818
179,fuglafjordur,62.244,-6.814,12.260000000000048,97,100,8.13,FO,1722535819
180,frankfort,-27.2667,28.4833,13.890000000000043,48,64,3.0,ZA,1722535757
181,portage la prairie,49.9728,-98.2926,30.620000000000005,43,0,5.01,CA,1722535628
182,i-n-salah,27.1935,2.4607,39.610000000000014,7,0,9.02,DZ,1722535822
183,andalgala,-27.5819,-66.3165,28.970000000000027,10,100,3.48,AR,1722535823
184,palmer,42.1584,-72.3287,33.02000000000004,55,75,4.63,US,1722535825
185,harper,4.375,-7.7169,23.79000000000002,86,100,5.64,LR,1722535619
186,enewetak,11.3474,162.3373,28.230000000000018,77,76,4.3,MH,1722535827
187,ulundi,-28.3352,31.4162,14.78000000000003,70,0,1.28,ZA,1722535828
188,kill devil hills,36.0307,-75.676,34.0,59,0,1.54,US,1722535829
189,tweed heads,-28.1817,153.547,13.020000000000039,59,0,4.12,AU,1722535830
190,neelankarai,12.9455,80.2575,31.170000000000016,75,75,5.14,IN,1722535832
191,newman,37.3138,-121.0208,33.460000000000036,19,76,1.93,US,1722535833
192,kalnibolotskaya,46.0058,40.4568,23.150000000000034,34,29,3.84,RU,1722535834
193,lihue,21.9789,-159.3672,25.77000000000004,69,20,5.14,US,1722535835
194,katima mulilo,-17.5,24.2667,20.07000000000005,21,2,1.92,NA,1722535836
195,la'ie,21.6477,-157.9253,26.980000000000018,78,91,2.68,US,1722535837
196,dryden,49.7833,-92.7503,27.80000000000001,32,9,3.78,CA,1722535838
197,hukumati azrah,34.1736,69.6457,15.850000000000023,84,23,0.6,AF,1722535839
198,amlapura,-8.45,115.6167,23.08000000000004,91,39,1.22,ID,1722535840
199,hasaki,35.7333,140.8333,24.220000000000027,89,22,3.56,JP,1722535841
200,beatrice,40.2681,-96.747,30.05000000000001,51,0,4.12,US,1722535842
201,novodvinsk,64.4165,40.8122,16.860000000000014,93,89,2.21,RU,1722535844
202,happy valley-goose bay,53.3168,-60.3315,20.170000000000016,94,75,4.63,CA,1722535845
203,haiku-pauwela,20.9219,-156.3051,24.590000000000032,73,20,5.66,US,1722535846
204,nyurba,63.2842,118.3319,6.6200000000000045,80,5,1.2,RU,1722535847
205,mareeba,-17.0,145.4333,16.400000000000034,88,48,1.0,AU,1722535849
206,fale old settlement,-9.3852,-171.2468,27.470000000000027,70,100,7.79,TK,1722535850
207,klaksvik,62.2266,-6.589,12.510000000000048,98,100,10.19,FO,1722535851
208,al bardiyah,31.7561,25.0865,26.560000000000002,59,0,6.68,LY,1722535853
209,sulphur,30.2366,-93.3774,35.0,64,75,0.0,US,1722535700
210,remire-montjoly,4.9167,-52.2667,28.02000000000004,83,75,4.12,GF,1722535816
211,la plata,-34.9215,-57.9545,23.260000000000048,66,97,3.94,AR,1722535856
212,laguna,38.421,-121.4238,33.860000000000014,41,0,2.57,US,1722535859
213,kapa'a,22.0752,-159.319,26.180000000000007,73,20,5.14,US,1722535860
214,santa elena de uairen,4.6167,-61.1333,25.28000000000003,63,24,4.56,VE,1722535861
215,al hoceima,35.2433,-3.9309,28.129999999999995,50,6,1.47,MA,1722535755
216,villa vasquez,19.7411,-71.4464,30.160000000000025,43,58,10.2,DO,1722535863
217,tazovsky,67.4667,78.7,15.32000000000005,88,93,3.71,RU,1722535865
218,necochea,-38.5473,-58.7368,17.370000000000005,87,100,5.6,AR,1722535726
219,san cristobal,7.7669,-72.225,32.10000000000002,43,42,4.64,VE,1722535867
220,patacamaya,-17.2333,-67.9167,15.660000000000025,15,0,0.51,BO,1722535636
221,sao felix do xingu,-6.6447,-51.995,38.03000000000003,17,25,1.73,BR,1722535869
222,san-pedro,4.7485,-6.6363,23.05000000000001,93,100,4.31,CI,1722535871
223,nicoya,10.1483,-85.452,26.27000000000004,90,99,1.66,CR,1722535872
224,nova sintra,14.8667,-24.7167,25.090000000000032,75,16,6.65,CV,1722535873
225,coyhaique,-45.5752,-72.0662,9.340000000000032,100,100,1.16,CL,1722535875
226,palangkaraya,-2.2,113.8333,24.379999999999995,93,90,1.3,ID,1722535635
227,boa vista,2.8197,-60.6733,31.99000000000001,51,40,3.09,BR,1722535879
228,kavaratti,10.5669,72.642,28.010000000000048,83,100,7.5,IN,1722535880
229,dudinka,69.4058,86.1778,16.5,51,82,3.92,RU,1722535881
230,sola,-13.8833,167.55,25.890000000000043,77,75,10.53,VU,1722535882
231,la rioja,42.25,-2.5,21.879999999999995,52,1,3.01,ES,1722535884
232,eirunepe,-6.6603,-69.8736,37.93000000000001,23,55,0.43,BR,1722535885
233,le port,-20.9373,55.2919,20.0,89,33,3.77,RE,1722535886
234,lazaro cardenas,17.9583,-102.2,29.060000000000002,65,99,0.43,MX,1722535755
235,klyuchi,52.2667,79.1667,23.970000000000027,44,83,2.87,RU,1722535888
236,uzlovaya,53.9818,38.1712,14.110000000000014,91,32,4.17,RU,1722535889
237,tete,-16.1564,33.5867,24.05000000000001,57,20,2.06,MZ,1722535890
238,kotlas,61.2611,46.6556,14.340000000000032,91,26,1.72,RU,1722535891
239,hulan ergi,47.2042,123.6333,19.660000000000025,74,100,5.09,CN,1722535892
240,tolanaro,-25.0319,46.9987,19.04000000000002,72,20,4.12,MG,1722535894
241,lompoc,34.6391,-120.4579,26.08000000000004,68,0,3.09,US,1722535895
242,zarghun shahr,32.8473,68.4457,25.470000000000027,50,69,3.48,AF,1722535896
243,sao joao da barra,-21.6403,-41.0511,25.05000000000001,61,3,5.03,BR,1722535897
244,nerekhta,57.4588,40.5747,14.939999999999998,93,100,2.81,RU,1722535898
245,rio grande,-32.035,-52.0986,23.060000000000002,73,24,7.09,BR,1722535899
246,avarua,-21.2078,-159.775,19.03000000000003,72,100,1.03,CK,1722535900
247,iwanai,42.9744,140.5089,19.79000000000002,97,28,2.85,JP,1722535901
248,pangody,65.85,74.4859,19.170000000000016,60,65,2.29,RU,1722535902
249,magadan,59.5667,150.8,9.800000000000011,90,100,4.91,RU,1722535903
250,song cau,13.45,109.2167,25.430000000000007,86,45,2.17,VN,1722535905
251,nabire,-3.3667,135.4833,24.120000000000005,95,85,1.62,ID,1722535906
252,bedele,8.456,36.353,13.640000000000043,98,99,1.53,ET,1722535634
253,carnarvon,-24.8667,113.6333,16.54000000000002,66,0,6.64,AU,1722535908
254,cheat lake,39.672,-79.8534,32.410000000000025,65,75,3.6,US,1722535909
255,puerto deseado,-47.7503,-65.8938,11.270000000000039,57,51,5.42,AR,1722535910
256,turpan,42.9333,89.1667,35.410000000000025,18,2,0.39,CN,1722535911
257,mejit,10.2753,170.8646,27.840000000000032,78,41,3.26,MH,1722535912
258,suomussalmi,64.8869,28.9078,11.140000000000043,98,99,1.54,FI,1722535913
259,sarangani,5.4033,125.4636,28.470000000000027,76,100,3.23,PH,1722535914
260,hami,42.8,93.45,29.25,30,41,3.81,CN,1722535916
261,banda aceh,5.5577,95.3222,27.439999999999998,76,100,1.93,ID,1722535917
262,turan,16.0678,108.2208,28.99000000000001,74,20,1.54,VN,1722535918
263,latakia,35.5148,35.7768,29.100000000000023,77,0,4.79,SY,1722535919
264,bodo,67.28,14.405,15.020000000000039,79,75,4.12,NO,1722535920
265,ciudad constitucion,25.0369,-111.6644,33.25,26,11,1.43,MX,1722535640
266,acapulco de juarez,16.8634,-99.8901,29.900000000000034,74,75,3.09,MX,1722535747
267,praia da vitoria,38.7333,-27.0667,27.090000000000032,78,40,1.78,PT,1722535923
268,kuusamo,65.9667,29.1833,14.020000000000039,94,100,3.09,FI,1722535924
269,freetown,8.484,-13.2299,24.840000000000032,94,75,8.23,SL,1722535925
270,bagarji,27.756,68.7524,35.43000000000001,56,100,6.08,PK,1722535926
271,smara,26.7384,-11.6719,40.170000000000016,21,9,11.48,EH,1722535928
272,holualoa,19.6228,-155.9522,24.910000000000025,82,75,2.57,US,1722535929
273,crucecita,-28.95,-58.9833,31.620000000000005,32,52,9.26,AR,1722535930
274,nihommatsu,37.5833,140.4333,21.870000000000005,78,68,0.18,JP,1722535754
275,tchintabaraden,15.8969,5.7985,33.24000000000001,41,37,4.93,NE,1722535933
276,matoury,4.8483,-52.3317,27.980000000000018,83,75,4.12,GF,1722535880
277,urcos,-13.6861,-71.6228,21.939999999999998,32,33,2.77,PE,1722535878
278,bom jesus,-9.0744,-44.3586,35.370000000000005,14,0,4.07,BR,1722535937
279,vadso,70.0744,29.7487,13.090000000000032,94,75,6.17,NO,1722535938
280,las choapas,17.9333,-94.0833,30.33000000000004,69,55,3.9,MX,1722535940
281,yeniseysk,58.4497,92.1703,14.400000000000034,96,82,1.32,RU,1722535941
282,shingu,33.7333,135.9833,24.710000000000036,76,5,1.55,JP,1722535942
283,mahina,-17.5065,-149.489,20.870000000000005,68,0,1.03,PF,1722535813
284,morondava,-20.2833,44.2833,23.230000000000018,51,73,5.48,MG,1722535944
285,kirakira,-10.4544,161.9205,25.260000000000048,88,27,3.9,SB,1722535945
286,sinabang,2.4803,96.3801,26.75,81,65,0.99,ID,1722535946
287,port macquarie,-31.4333,152.9167,11.150000000000034,83,83,0.45,AU,1722535948
288,salalah,17.0151,54.0924,25.05000000000001,100,100,3.09,OM,1722535949
289,posto fiscal rolim de moura,-13.0833,-62.2667,38.28000000000003,17,0,2.48,BR,1722535655
290,ingeniero jacobacci,-41.3427,-69.5448,10.82000000000005,48,100,13.96,AR,1722535951
291,frontera,26.9333,-101.45,31.05000000000001,53,0,4.63,MX,1722535952
292,darfo boario terme,45.8835,10.1807,27.25,75,24,1.79,IT,1722535953
293,alotau,-10.3069,150.4462,23.060000000000002,95,99,2.76,PG,1722535954
294,umm as sahik,26.6536,49.9164,39.08000000000004,27,15,3.55,SA,1722535955
295,kichmengskiy gorodok,59.9816,45.7854,15.830000000000041,88,94,1.46,RU,1722535956
296,sao jose da coroa grande,-8.8978,-35.1478,26.02000000000004,68,53,6.28,BR,1722535957
297,iskateley,67.6803,53.1512,15.520000000000039,94,57,4.46,RU,1722535958
298,khorixas,-20.3667,14.9667,17.760000000000048,18,0,2.29,NA,1722535960
299,majuro,7.0897,171.3803,26.980000000000018,89,100,2.06,MH,1722535961
300,gizo,-8.103,156.8419,26.939999999999998,81,26,5.37,SB,1722535962
301,san antonio de pale,-1.4014,5.6325,22.460000000000036,81,92,5.22,GQ,1722535963
302,ceerigaabo,10.6162,47.368,21.650000000000034,57,64,5.37,SO,1722535964
303,mersa matruh,31.3525,27.2453,27.350000000000023,65,0,4.92,EG,1722535965
304,suoyarvi,62.0833,32.35,15.310000000000002,90,62,1.57,RU,1722535966
305,kassala,15.451,36.4,25.53000000000003,72,100,5.85,SD,1722535967
306,kasongo-lunda,-6.4667,16.8167,28.120000000000005,34,86,0.96,CD,1722535968
307,severo-yeniseyskiy,60.3725,93.0408,13.300000000000011,94,85,0.88,RU,1722535970
308,pericos,25.05,-107.7,34.950000000000045,52,47,1.29,MX,1722535971
309,viedma,-40.8135,-62.9967,20.230000000000018,53,100,6.38,AR,1722535849
310,cannonvale,-20.2833,148.7,18.660000000000025,76,62,6.16,AU,1722535973
311,newala kisimani,-10.95,39.2833,18.05000000000001,71,8,3.04,TZ,1722535975
312,ola,59.5833,151.2833,9.970000000000027,88,100,5.2,RU,1722535976
313,namtsy,62.7161,129.6658,5.010000000000048,62,20,2.14,RU,1722535977
314,sao vicente,-23.9631,-46.3919,28.480000000000018,70,100,2.68,BR,1722535978
315,nemuro,43.3236,145.575,16.140000000000043,94,98,5.35,JP,1722535979
316,keflavik,64.0049,-22.5624,12.950000000000045,76,75,2.06,IS,1722535981
317,damasak,13.0977,12.4952,22.970000000000027,90,100,3.3,NG,1722535982
318,ostersund,63.1792,14.6357,16.450000000000045,72,40,7.72,SE,1722535984
319,manali,13.1667,80.2667,31.189999999999998,69,100,0.89,IN,1722535986
320,shakawe,-18.3667,21.85,20.74000000000001,18,2,2.12,BW,1722535987
321,castillos,-34.1667,-53.8333,23.32000000000005,61,74,3.89,UY,1722535988
322,bathsheba,13.2167,-59.5167,32.34000000000003,66,40,5.66,BB,1722535989
323,yuzhno-kurilsk,44.0306,145.8556,15.810000000000002,98,100,3.4,RU,1722535990
324,dire dawa,9.5931,41.8661,24.210000000000036,59,50,4.53,ET,1722535991
325,hastings,50.8552,0.5729,22.77000000000004,41,51,2.77,GB,1722535992
326,salinopolis,-0.6136,-47.3561,29.52000000000004,63,23,5.96,BR,1722535993
327,copala,16.65,-98.9833,30.629999999999995,59,85,2.48,MX,1722535994
328,buka,40.8108,69.1986,32.410000000000025,22,70,2.95,UZ,1722535996
329,tingi,-11.3,35.0333,14.340000000000032,49,0,1.3,TZ,1722535997
330,katsuren-haebaru,26.3369,127.8719,30.010000000000048,86,0,2.06,JP,1722535998
331,daru,-9.0763,143.2092,24.360000000000014,90,91,7.46,PG,1722535999
332,taroa,8.7058,171.2275,28.060000000000002,79,90,4.88,MH,1722536000
333,lebu,-37.6167,-73.65,11.82000000000005,91,100,16.88,CL,1722536001
334,geraldton,-28.7667,114.6,9.230000000000018,87,57,5.66,AU,1722536003
335,kralendijk,12.15,-68.2667,32.99000000000001,58,20,7.72,BQ,1722536004
336,malango,-2.9627,119.9001,17.870000000000005,99,53,0.83,ID,1722536006
337,tierra colorada,17.1667,-99.5833,28.310000000000002,54,100,1.97,MX,1722536008
338,chania,35.5122,24.0156,38.60000000000002,69,0,1.54,GR,1722536009
339,kristiansund,63.1115,7.732,17.03000000000003,81,0,2.57,NO,1722536010
340,truth or consequences,33.1284,-107.2528,32.170000000000016,40,0,2.57,US,1722536011
341,tazacorte,28.629,-17.9293,25.640000000000043,78,40,7.2,ES,1722536012
342,las torres de cotillas,38.0282,-1.2419,34.879999999999995,47,0,4.12,ES,1722536015
343,sechura,-5.5569,-80.8222,24.710000000000036,57,6,5.64,PE,1722536016
344,port moresby,-9.4431,147.1797,23.49000000000001,92,93,3.31,PG,1722536017
345,suncho corral,-27.9336,-63.4294,32.99000000000001,24,95,9.61,AR,1722536018
346,barra,-11.0894,-43.1417,29.890000000000043,30,0,3.25,BR,1722536019
347,prince rupert,54.3161,-130.3201,16.05000000000001,79,20,3.6,CA,1722536021
348,stornoway,58.2093,-6.3865,15.580000000000041,90,75,4.63,GB,1722536023
349,saldanha,-33.0117,17.9442,10.03000000000003,87,0,5.66,ZA,1722536025
350,enshi,30.3,109.4833,23.27000000000004,96,0,0.31,CN,1722536026
351,atafu village,-8.5421,-172.5159,27.810000000000002,72,95,7.57,TK,1722536027
352,tual,-5.6667,132.75,25.140000000000043,85,85,8.97,ID,1722536028
353,pechora,65.1472,57.2244,16.360000000000014,68,77,0.87,RU,1722536029
354,saudarkrokur,65.7461,-19.6394,13.700000000000045,73,100,3.7,IS,1722536031
355,krychaw,53.6945,31.7099,14.510000000000048,90,35,3.3,BY,1722536033
356,buldana,20.5333,76.1833,23.400000000000034,86,100,6.16,IN,1722536034
357,queenstown,-31.8976,26.8753,12.150000000000034,43,21,1.63,ZA,1722536035
358,niafunke,15.9322,-3.9906,34.920000000000016,41,100,6.78,ML,1722536036
359,colby,39.3958,-101.0524,34.03000000000003,34,0,5.36,US,1722536038
360,tsiombe,-25.3,45.4833,17.910000000000025,66,7,1.88,MG,1722536039
361,saint-joseph,-21.3667,55.6167,19.210000000000036,67,55,2.53,RE,1722536040
362,longfeng,46.55,125.1167,21.010000000000048,76,58,5.13,CN,1722536042
363,cromer,52.9312,1.2989,21.150000000000034,82,22,4.72,GB,1722536045
364,zaozersk,69.4005,32.4476,10.310000000000002,96,99,5.16,RU,1722536046
365,akureyri,65.6835,-18.0878,11.960000000000036,94,75,4.12,IS,1722536047
366,guarapari,-20.6667,-40.4975,23.27000000000004,59,10,3.79,BR,1722536048
367,nuku'alofa,-21.1333,-175.2,17.189999999999998,94,75,0.0,TO,1722536049
368,sierra grande,-41.606,-65.3557,16.460000000000036,34,99,7.22,AR,1722536050
369,tshabong,-26.05,22.45,16.680000000000007,17,80,5.7,BW,1722536051
370,arraial do cabo,-22.9661,-42.0278,23.980000000000018,57,0,6.69,BR,1722536052
371,dara,15.3484,-15.4799,32.53000000000003,43,100,7.28,SN,1722536053
372,machico,32.7,-16.7667,27.620000000000005,57,20,6.69,PT,1722536055
373,ziro,27.6333,93.8333,16.870000000000005,98,99,0.67,IN,1722536056
374,tinajo,29.0788,-13.7081,25.49000000000001,65,20,11.83,ES,1722536057
375,ciudad lazaro cardenas,17.9583,-102.2,30.620000000000005,56,100,0.37,MX,1722536058
376,tosontsengel,48.7567,98.2839,10.32000000000005,86,95,0.67,MN,1722536059
377,kayyerkan,69.3786,87.7439,16.370000000000005,58,87,2.0,RU,1722536060
378,sos'va,59.1766,61.8558,15.160000000000025,92,99,1.95,RU,1722536061
379,kingston,17.997,-76.7936,31.53000000000003,66,75,4.12,JM,1722535722
380,dompu,-8.5356,118.4622,22.30000000000001,96,5,0.27,ID,1722536063
381,yemel'yanovo,56.1681,92.6767,15.450000000000045,100,0,0.0,RU,1722535867
382,tagta,41.6504,59.9164,30.970000000000027,37,0,4.12,TM,1722536066
383,papao,-17.75,-149.55,23.82000000000005,61,25,6.52,PF,1722536067
384,cidreira,-30.1811,-50.2056,17.420000000000016,78,1,6.37,BR,1722536069
385,crixas,-14.5489,-49.9692,34.27000000000004,17,0,2.75,BR,1722536070
386,sitka,57.0531,-135.33,13.939999999999998,82,100,3.09,US,1722536071
387,olaya herrera,1.2561,-77.4967,25.610000000000014,46,62,2.74,CO,1722536072
388,ayancik,41.9447,34.5861,21.930000000000007,74,3,3.66,TR,1722536073
389,port douglas,-16.4833,145.4667,20.129999999999995,80,56,4.98,AU,1722536074
390,jinchang,38.4953,102.1739,19.650000000000034,72,100,1.79,CN,1722536075
391,punto fijo,11.6956,-70.1996,32.150000000000034,52,7,2.3,VE,1722536077
392,launceston,-41.45,147.1667,5.740000000000009,93,100,3.09,AU,1722536005
393,huilong,31.8111,121.655,29.33000000000004,77,0,2.99,CN,1722536079
394,ebon,4.582,168.6964,28.33000000000004,75,50,4.54,MH,1722536080
395,mbale,1.0821,34.175,19.170000000000016,86,90,1.56,UG,1722536081
396,palikir - national government center,6.9248,158.1611,27.420000000000016,73,85,0.96,FM,1722536082
397,chabahar,25.2919,60.643,28.82000000000005,87,93,4.8,IR,1722536084
398,bouca,6.5105,18.2733,25.410000000000025,65,34,1.35,CF,1722536085
399,anamur,36.0751,32.8369,29.600000000000023,48,0,4.88,TR,1722536086
400,gubakha,58.8386,57.5532,16.200000000000045,97,88,1.17,RU,1722536087
401,robore,-18.3333,-59.75,36.05000000000001,32,20,7.72,BO,1722536089
402,howrah,22.5892,88.3103,28.0,94,100,6.69,IN,1722536091
403,loa janan,-0.583,117.095,23.129999999999995,98,21,0.88,ID,1722536092
404,nar'yan-mar,67.6713,53.087,15.470000000000027,94,60,4.5,RU,1722536094
405,iguape,-24.7081,-47.5553,20.620000000000005,76,21,3.37,BR,1722536095
406,konarka,19.9,86.1167,28.420000000000016,83,100,5.07,IN,1722536096
407,kelso,46.1468,-122.9084,27.83000000000004,68,5,2.24,US,1722535823
408,bubaque,11.2833,-15.8333,27.160000000000025,83,81,5.71,GW,1722536098
409,pierre,44.3683,-100.351,32.14000000000004,43,0,1.34,US,1722536099
410,novokruchininskiy,51.7833,113.7667,10.850000000000023,58,38,1.54,RU,1722536101
411,yonggwang-up,40.0183,127.4547,25.840000000000032,79,94,1.93,KP,1722536102
412,micheweni,-4.9667,39.8333,24.730000000000018,77,10,7.3,TZ,1722536103
413,nuporanga,-20.7308,-47.7306,29.77000000000004,21,0,2.37,BR,1722536104
414,moron,-34.6534,-58.6198,24.439999999999998,68,100,8.05,AR,1722536105
415,gadzhiyevo,69.2551,33.3362,10.29000000000002,96,99,5.48,RU,1722536108
416,gananoque,44.3334,-76.1661,30.700000000000045,75,1,3.57,CA,1722536109
417,zhanaozen,43.3,52.8,27.30000000000001,30,1,5.62,KZ,1722536110
418,kainantu,-6.2887,145.8655,15.379999999999995,99,76,1.12,PG,1722536111
419,puerto carreno,6.189,-67.4859,31.58000000000004,59,42,0.81,CO,1722536113
420,tulun,54.5611,100.5792,13.590000000000032,91,1,1.36,RU,1722536114
421,coquimbo,-29.9533,-71.3436,13.850000000000023,88,100,1.54,CL,1722536055
422,morris,40.8334,-74.5329,34.52000000000004,52,40,4.63,US,1722535864
423,olyokminsk,60.3736,120.4264,8.350000000000023,68,60,0.57,RU,1722536117
424,wuchuan,21.4571,110.7659,27.860000000000014,83,5,2.04,CN,1722536118
425,maridi,4.9158,29.4742,19.53000000000003,91,98,1.55,SS,1722536120
426,xinyi,22.373,110.9475,25.02000000000004,88,2,1.25,CN,1722536121
427,qinggang,46.6833,126.0833,19.5,88,53,4.74,CN,1722536122
428,urucui,-7.2294,-44.5561,36.09000000000003,16,2,4.27,BR,1722536123
429,monguno,12.6786,13.6079,22.879999999999995,92,100,3.32,NG,1722536124
430,ejura,7.3856,-1.3562,25.060000000000002,85,61,2.43,GH,1722536126
431,itoman,26.1247,127.6694,30.010000000000048,84,40,3.09,JP,1722536127
432,crane,31.3974,-102.3501,33.64000000000004,36,0,6.96,US,1722535915
433,dubbo,-32.25,148.6167,3.07000000000005,93,1,4.12,AU,1722536130
434,kas,36.2018,29.6377,29.0,49,0,3.52,TR,1722536131
435,sirumugai,11.3333,77.0167,24.760000000000048,83,100,0.96,IN,1722536132
436,valparaiso,-33.0393,-71.6273,13.970000000000027,81,100,9.26,CL,1722536133
437,pearsall,28.8922,-99.095,36.32000000000005,30,6,5.27,US,1722536134
438,mermoz boabab,14.7065,-17.4758,29.310000000000002,70,75,3.09,SN,1722536135
439,forster,-32.1667,152.5167,10.160000000000025,89,93,6.25,AU,1722536136
440,elmali,36.7358,29.9177,25.05000000000001,38,71,2.5,TR,1722536138
441,harstad,68.799,16.5293,14.020000000000039,95,100,1.98,NO,1722536139
442,tan-tan,28.438,-11.1032,22.970000000000027,83,40,10.29,MA,1722536141
443,troitsko-pechorsk,62.7084,56.1964,14.150000000000034,85,67,2.33,RU,1722536142
444,illizi,26.4833,8.4667,37.89000000000004,13,0,4.36,DZ,1722536143
445,port lincoln,-34.7333,135.8667,12.970000000000027,46,100,8.7,AU,1722536144
446,khandyga,62.6667,135.6,3.6299999999999955,96,56,1.21,RU,1722535934
447,kaga bandoro,6.9896,19.1874,26.140000000000043,74,75,1.03,CF,1722536146
448,rikaze,29.25,88.8833,16.600000000000023,43,65,2.69,CN,1722536148
449,puerto colombia,10.9878,-74.9547,34.05000000000001,71,65,6.46,CO,1722536150
450,oriximina,-1.7656,-55.8661,33.53000000000003,37,43,2.41,BR,1722536151
451,polyarnyy,69.1989,33.4478,10.650000000000034,94,99,4.85,RU,1722536153
452,gondia,21.45,80.2,23.890000000000043,97,100,3.12,IN,1722536154
453,karratha,-20.7377,116.8463,19.400000000000034,70,95,6.1,AU,1722536155
454,margate,51.3813,1.3862,21.28000000000003,78,23,4.65,GB,1722536032
455,belmopan,17.25,-88.7667,31.210000000000036,81,100,1.87,BZ,1722536157
456,manta,-0.95,-80.7333,26.879999999999995,69,20,5.14,EC,1722536158
457,bodaybo,57.8506,114.1933,15.79000000000002,59,100,0.95,RU,1722536159
458,kongsberg,59.6652,9.6465,20.090000000000032,63,56,1.87,NO,1722536161
459,tralee,52.2704,-9.7026,21.140000000000043,68,40,5.14,IE,1722536162
460,salekhard,66.53,66.6019,16.120000000000005,92,82,3.46,RU,1722536163
461,goya,-29.14,-59.2626,32.49000000000001,29,64,7.56,AR,1722536164
462,koryazhma,61.3143,47.1691,14.140000000000043,96,56,1.84,RU,1722536166
463,college,64.8569,-147.8028,12.830000000000041,78,75,1.54,US,1722536167
464,nova xavantina,-14.6667,-52.35,35.81,17,0,2.26,BR,1722536036
465,jericho,31.8667,35.45,32.56,47,0,3.02,PS,1722536169
466,terrace,54.5163,-128.6035,19.560000000000002,67,75,2.06,CA,1722535973
467,cockburn town,21.4612,-71.1419,25.980000000000018,83,100,5.66,TC,1722536174
468,tibanbang,6.6315,126.1055,26.960000000000036,82,97,3.65,PH,1722536175
469,albertina,-22.2008,-46.6158,26.760000000000048,23,0,3.16,BR,1722536176
470,ballina,-28.8667,153.5667,6.550000000000011,82,15,5.27,AU,1722536177
471,ordynskoye,54.3656,81.8994,20.670000000000016,71,16,2.04,RU,1722536178
472,glace bay,46.1969,-59.957,28.970000000000027,67,75,6.69,CA,1722536179
473,roxas,11.5853,122.7511,24.52000000000004,87,100,1.83,PH,1722536180
474,aconibe,1.2968,10.9369,22.400000000000034,71,100,0.76,GQ,1722536181
475,konnern,51.6667,11.7667,27.360000000000014,83,96,6.3,DE,1722536182
476,iwaki,37.05,140.8833,23.340000000000032,90,60,0.93,JP,1722536183
477,coronado,32.6859,-117.1831,28.680000000000007,71,75,4.12,US,1722536185
478,mont-laurier,46.5501,-75.4993,29.79000000000002,34,0,2.07,CA,1722536186
479,barcelos,41.5388,-8.6151,24.400000000000034,69,6,5.13,PT,1722536187
480,shahritus,37.2637,68.1385,31.640000000000043,16,0,2.66,TJ,1722536188
481,nakonde,-9.3421,32.745,14.890000000000043,50,0,3.97,ZM,1722536189
482,quellon,-43.1167,-73.6167,8.400000000000034,96,100,4.86,CL,1722536190
483,san andres,12.5847,-81.7006,29.010000000000048,84,75,1.03,CO,1722536191
484,girvan,55.2426,-4.8555,20.0,76,3,2.56,GB,1722536195
485,tura,25.5198,90.2201,24.05000000000001,97,100,3.85,IN,1722536196
486,tamanrasset,22.785,5.5228,32.950000000000045,16,40,2.06,DZ,1722536197
487,mwene-ditu,-7.0,23.45,25.879999999999995,18,2,0.44,CD,1722536198
488,cobija,-11.0267,-68.7692,36.10000000000002,38,20,4.12,BO,1722536199
489,guerrero negro,27.9769,-114.0611,25.99000000000001,53,3,4.71,MX,1722536200
490,muromtsevo,56.3724,75.2418,20.840000000000032,76,90,2.96,RU,1722536201
491,netrakona,24.8833,90.7167,25.430000000000007,95,100,6.8,BD,1722536202
492,vernon,50.2581,-119.2691,29.610000000000014,30,15,1.03,CA,1722536203
493,bibra lake,-32.0943,115.8348,10.160000000000025,94,100,0.0,AU,1722536205
494,codrington,-38.2667,141.9667,4.910000000000025,82,46,4.48,AU,1722536206
495,mariehamn,60.0973,19.9348,17.920000000000016,63,0,3.09,AX,1722536207
496,chingirlau,51.095,54.0814,20.28000000000003,56,35,3.16,KZ,1722536208
497,selfoss,63.9331,-20.9971,12.25,73,96,4.96,IS,1722536209
498,poyarkovo,49.6,128.6833,15.960000000000036,82,97,3.69,RU,1722536211
499,poronaysk,49.2167,143.1167,13.78000000000003,99,100,3.06,RU,1722536212
500,whangarei,-35.7317,174.3239,11.439999999999998,95,99,4.85,NZ,1722536213
501,quepos,9.4236,-84.1652,27.660000000000025,78,95,2.13,CR,1722536214
502,concepcion del oro,24.6333,-101.4167,21.930000000000007,30,0,3.01,MX,1722536215
503,usinsk,65.9939,57.5281,17.200000000000045,79,34,4.56,RU,1722535959
504,aswan,24.0934,32.907,37.400000000000034,18,4,4.08,EG,1722536218
505,rongelap,11.1635,166.8941,27.730000000000018,80,60,3.14,MH,1722536219
506,juegang,32.3174,121.1855,28.82000000000005,82,14,2.54,CN,1722536220
507,kone,-21.0595,164.8658,16.629999999999995,84,100,1.52,NC,1722536221
508,tabou,4.423,-7.3528,23.77000000000004,86,100,5.23,CI,1722536222
509,cabedelo,-6.9811,-34.8339,28.370000000000005,71,15,8.27,BR,1722536008
510,vila franca do campo,37.7167,-25.4333,24.230000000000018,70,70,2.37,PT,1722536224
511,hammerfest,70.6634,23.6821,16.25,82,0,4.63,NO,1722536225
512,lincoln city,44.9582,-124.0179,28.57000000000005,69,16,1.34,US,1722536226
513,sale,34.0389,-6.8166,24.379999999999995,88,40,2.57,MA,1722536176
514,chilliwack,49.1747,-121.9443,26.350000000000023,61,1,1.03,CA,1722536228
515,obihiro,42.9172,143.2044,19.140000000000043,98,96,0.73,JP,1722536230
516,chernyshevskiy,63.0128,112.4714,7.220000000000027,75,8,1.26,RU,1722536231
517,san luis de la loma,17.2706,-100.8939,30.04000000000002,62,100,1.8,MX,1722536233
518,acarau,-2.8856,-40.12,30.950000000000045,49,6,7.52,BR,1722536234
519,tarawa,1.419,172.984,27.05000000000001,89,20,1.54,KI,1722536235
520,carauari,-4.8828,-66.8958,37.660000000000025,28,44,1.32,BR,1722536236
521,mpika,-11.8343,31.4529,16.28000000000003,35,0,3.79,ZM,1722536237
522,alaghsas,17.0187,8.0168,28.939999999999998,58,0,5.66,NE,1722536239
523,mossendjo,-2.9506,12.7261,22.689999999999998,55,25,0.53,CG,1722536240
524,nguigmi,14.2495,13.1092,25.470000000000027,76,100,6.0,NE,1722536241
525,callao,-12.0667,-77.15,19.160000000000025,72,75,4.12,PE,1722536242
526,jonuta,18.0833,-92.1333,33.660000000000025,47,44,4.24,MX,1722536243
527,inirida,3.8653,-67.9239,32.950000000000045,51,27,0.32,CO,1722536245
528,xining,36.6167,101.7667,14.29000000000002,91,99,0.51,CN,1722536246
529,pagar alam,-4.0167,103.2667,19.82000000000005,92,50,1.07,ID,1722536247
530,kijang,35.2442,129.2139,26.850000000000023,92,0,2.68,KR,1722536248
531,sittwe,20.15,92.9,26.220000000000027,89,100,5.15,MM,1722536249
532,usogorsk,63.4106,48.6872,15.490000000000009,93,98,2.39,RU,1722536250
533,kolwezi,-10.7148,25.4667,17.77000000000004,25,0,2.36,CD,1722536252
534,uturoa,-16.7333,-151.4333,23.700000000000045,60,8,6.59,PF,1722536253
535,perry,37.2506,-83.1999,29.400000000000034,63,51,2.92,US,1722536255
536,ventspils,57.3894,21.5606,16.960000000000036,77,75,4.12,LV,1722536257
537,tidjikja,18.5564,-11.4271,37.75,23,38,5.75,MR,1722536259
538,labytnangi,66.6572,66.4183,16.08000000000004,92,92,3.69,RU,1722536260
539,mili,6.0815,171.735,28.260000000000048,77,23,3.35,MH,1722536261
540,al jawf,29.5,38.75,33.360000000000014,19,38,3.86,SA,1722536263
541,yaren,-0.5472,166.916,28.27000000000004,69,5,2.58,NR,1722536264
542,belmonte,-15.8631,-38.8828,26.33000000000004,62,8,3.84,BR,1722536265
543,tokar,18.4254,37.729,33.54000000000002,44,99,10.17,SD,1722536267
544,singkil,-7.9855,111.4161,22.74000000000001,93,6,2.1,ID,1722536268
545,svetlyy,54.675,20.1347,18.03000000000003,82,36,2.8,RU,1722536270
546,utrik,11.2278,169.8474,28.02000000000004,80,70,3.14,MH,1722536271
547,nagqu,31.5,92.0,4.980000000000018,72,64,2.68,CN,1722536272
548,baruun-urt,46.6806,113.2792,15.25,96,58,4.17,MN,1722536273
549,dondo,-19.6094,34.7431,21.730000000000018,83,0,2.45,MZ,1722536274
550,middelburg,-25.7751,29.4648,13.120000000000005,50,5,2.02,ZA,1722536276
551,petukhovo,55.0692,67.9019,20.170000000000016,70,99,3.13,RU,1722536277
552,pangai,-19.8,-174.35,23.060000000000002,73,20,5.66,TO,1722536278
553,kapuskasing,49.4169,-82.4331,30.05000000000001,58,20,4.12,CA,1722536279
554,moranbah,-22.0016,148.0466,10.850000000000023,92,0,4.02,AU,1722536280
555,sarina,-21.4333,149.2167,11.82000000000005,1,2,3.21,AU,1722536281
556,fall river,41.7015,-71.1551,33.79000000000002,63,0,3.6,US,1722536282
557,hampton bays,40.869,-72.5176,32.08000000000004,51,0,3.6,US,1722536116
558,tamandare,-8.7597,-35.1047,26.170000000000016,66,57,5.88,BR,1722536284
559,tvoroyri,61.5556,-6.8111,11.82000000000005,95,100,9.71,FO,1722536285
560,mao,39.8885,4.2658,29.310000000000002,74,0,2.06,ES,1722536286
561,sanya,18.2431,109.505,27.090000000000032,89,0,2.0,CN,1722536288
562,aripuana,-9.1667,-60.6333,38.27000000000004,18,9,1.57,BR,1722536290
563,yerofey pavlovich,53.9667,121.9667,8.660000000000025,65,55,0.99,RU,1722536291
564,red deer,52.2668,-113.802,23.49000000000001,40,0,7.72,CA,1722536292
565,amga,60.8953,131.9608,6.189999999999998,76,67,1.03,RU,1722536293
566,hwange,-18.3693,26.5019,19.33000000000004,33,4,1.58,ZW,1722536294
567,revda,56.801,59.9303,13.580000000000041,96,17,1.72,RU,1722536295
568,north ward,-19.2454,146.8075,16.950000000000045,82,25,3.09,AU,1722536296
569,nebraska city,40.6767,-95.8592,29.890000000000043,65,0,3.6,US,1722536297
570,moussoro,13.6408,16.4901,27.210000000000036,71,98,4.04,TD,1722536299
571,vilyuysk,63.7553,121.6247,7.03000000000003,71,6,1.62,RU,1722536300
572,al muwayh,22.4333,41.7583,32.170000000000016,26,40,8.44,SA,1722536301
573,marquard,-28.6645,27.4305,12.610000000000014,50,84,3.24,ZA,1722536302
574,la passe,45.5549,-0.8967,27.129999999999995,73,0,5.41,FR,1722536303
